address,areas,bathrooms,bedrooms,parking-spaces,zap_price_pmo,zap_price_cls,zap_price_iptu,latitude,longitude,street,neighborhood,r$_pmo,usd_pmo
"Rua João Barros Moreira, Recreio dos Bandeirantes",450 m²,7.0,4.0,3.0,R$ 5.000 /mês,condomínio R$ 1.242,IPTU R$ 481,-23.0197394,-43.4600439,Rua João Barros Moreira, Recreio dos Bandeirantes,5000,1162.23
"Rua João Pinheiro, Piedade",56 m²,2.0,2.0,1.0,R$ 1.300 /mês,condomínio R$ 460,IPTU R$ 60,-22.8871743,-43.3041246,Rua João Pinheiro, Piedade,1300,302.18
"Estrada dos Bandeirantes, Jacarepaguá",61 m²,2.0,2.0,1.0,R$ 1.380 /mês,condomínio R$ 600,IPTU R$ 89,-22.9548472,-43.3765899,Estrada dos Bandeirantes, Jacarepaguá,1380,320.78
"Rua Mário Covas Júnior, Barra da Tijuca",97 m²,3.0,2.0,1.0,R$ 2.950 /mês,condomínio R$ 852,IPTU R$ 315,-23.0056458,-43.330188299999996,Rua Mário Covas Júnior, Barra da Tijuca,2950,685.72
"Rua Coronel Paulo Malta Rezende, Barra da Tijuca",65 m²,2.0,2.0,1.0,R$ 2.400 /mês,condomínio R$ 809,IPTU R$ 218,-23.004933800000003,-43.3312167,Rua Coronel Paulo Malta Rezende, Barra da Tijuca,2400,557.87
"Rua Araguaia, Freguesia (Jacarepaguá)",95 m²,2.0,3.0,2.0,R$ 2.650 /mês,condomínio R$ 735,IPTU R$ 203,-22.937735600000003,-43.3446284,Rua Araguaia, Freguesia (Jacarepaguá),2650,615.98
"Rua Redentor, Ipanema",130 m²,3.0,3.0,1.0,R$ 7.300 /mês,condomínio R$ 1.879,IPTU R$ 644,-22.9821776,-43.2133851,Rua Redentor, Ipanema,7300,1696.86
"Rua Alcides Lima, Jacarepaguá",70 m²,2.0,2.0,1.0,R$ 1.500 /mês,condomínio R$ 400,IPTU R$ 110,-22.9451467,-43.3374151,Rua Alcides Lima, Jacarepaguá,1500,348.67
"Rua Aroazes, Jacarepaguá",64 m²,2.0,2.0,1.0,R$ 1.650 /mês,condomínio R$ 650,IPTU R$ 95,-22.9709611,-43.395351399999996,Rua Aroazes, Jacarepaguá,1650,383.54
"Rua Ituverava, Freguesia de Jacarepaguá",65 m²,2.0,2.0,1.0,R$ 1.900 /mês,condomínio R$ 500,IPTU R$ 150,-22.9408899,-43.3422564,Rua Ituverava, Freguesia de Jacarepaguá,1900,441.65
"Estrada Pau-ferro, Pechincha",54 m²,2.0,2.0,1.0,R$ 1.700 /mês,condomínio R$ 345,IPTU R$ 94,-22.928988,-43.3534191,Estrada Pau-ferro, Pechincha,1700,395.16
"Rua Ivo Borges, Recreio dos Bandeirantes",400 m²,4.0,5.0,2.0,R$ 3.500 /mês,condomínio R$ 1.050,IPTU R$ 300,-23.016643600000002,-43.4687359,Rua Ivo Borges, Recreio dos Bandeirantes,3500,813.56
"Rua Araguaia, Freguesia (Jacarepaguá)",77 m²,2.0,2.0,1.0,R$ 2.300 /mês,condomínio R$ 596,IPTU R$ 114,-22.937735600000003,-43.3446284,Rua Araguaia, Freguesia (Jacarepaguá),2300,534.63
"Jacarepaguá, Rio de Janeiro",67 m²,2.0,3.0,2.0,R$ 1.800 /mês,condomínio R$ 450,IPTU R$ 117,-22.9665038,-43.371319299999996,Jacarepaguá, Rio de Janeiro,1800,418.4
"Estrada Pau-ferro, Freguesia (Jacarepaguá)",66 m²,2.0,2.0,1.0,R$ 1.700 /mês,condomínio R$ 700,IPTU R$ 103,-22.9408899,-43.3422564,Estrada Pau-ferro, Freguesia (Jacarepaguá),1700,395.16
"Rua Paramopama, Ribeira",70 m²,2.0,2.0,1.0,R$ 2.300 /mês,condomínio R$ 250,IPTU R$ 25,-22.822127300000002,-43.1718358,Rua Paramopama, Ribeira,2300,534.63
"Rua Samin, Irajá",90 m²,2.0,2.0,1.0,R$ 1.500 /mês,condomínio R$ 170,,-22.8395223,-43.328984600000005,Rua Samin, Irajá,1500,348.67
"Rua Engenheiro Enaldo Cravo Peixoto, Tijuca",70 m²,2.0,2.0,1.0,R$ 2.600 /mês,condomínio R$ 814,IPTU R$ 155,-22.9219495,-43.2345965,Rua Engenheiro Enaldo Cravo Peixoto, Tijuca,2600,604.36
"Estrada da Covanca, Tanque",74 m²,2.0,2.0,1.0,R$ 1.000 /mês,condomínio R$ 500,IPTU R$ 17,-22.9149163,-43.346668,Estrada da Covanca, Tanque,1000,232.45
"Rua Silvia Pozzano, Recreio dos Bandeirantes",69 m²,2.0,2.0,1.0,R$ 1.700 /mês,condomínio R$ 740,IPTU R$ 180,-23.0066417,-43.4845412,Rua Silvia Pozzano, Recreio dos Bandeirantes,1700,395.16
"Rua Raul Pompéia, Copacabana",70 m²,3.0,1.0,,R$ 2.650 /mês,condomínio R$ 586,IPTU R$ 170,-22.9859524,-43.1911156,Rua Raul Pompéia, Copacabana,2650,615.98
"Rua das Laranjeiras, Laranjeiras",65 m²,2.0,2.0,1.0,R$ 2.300 /mês,condomínio R$ 900,IPTU R$ 120,-22.9323641,-43.1821872,Rua das Laranjeiras, Laranjeiras,2300,534.63
"Rua Itua, Jardim Guanabara",141 m²,2.0,3.0,2.0,R$ 3.000 /mês,condomínio R$ 500,IPTU R$ 249,-22.8163695,-43.2068501,Rua Itua, Jardim Guanabara,3000,697.34
"Rua Retiro dos Artistas, Pechincha",65 m²,2.0,2.0,1.0,R$ 1.200 /mês,condomínio R$ 540,IPTU R$ 85,-22.930480300000003,-43.3555556,Rua Retiro dos Artistas, Pechincha,1200,278.94
"Avenida Visconde de Albuquerque, Leblon",140 m²,4.0,3.0,1.0,R$ 7.500 /mês,condomínio R$ 1.500,IPTU R$ 581,-22.9877577,-43.2286995,Avenida Visconde de Albuquerque, Leblon,7500,1743.35
"Rua Coronel Paulo Malta Rezende, Barra da Tijuca",65 m²,2.0,2.0,1.0,R$ 2.200 /mês,condomínio R$ 713,IPTU R$ 229,-23.004933800000003,-43.3312167,Rua Coronel Paulo Malta Rezende, Barra da Tijuca,2200,511.38
"Rua Retiro dos Artistas, Pechincha",62 m²,2.0,2.0,1.0,R$ 1.300 /mês,condomínio R$ 550,IPTU R$ 88,-22.930480300000003,-43.3555556,Rua Retiro dos Artistas, Pechincha,1300,302.18
"Rua Paulo Moura, Barra da Tijuca",82 m²,3.0,2.0,1.0,R$ 2.200 /mês,condomínio R$ 950,IPTU R$ 280,-22.9920076,-43.4023471,Rua Paulo Moura, Barra da Tijuca,2200,511.38
"Rua Bolivar, Copacabana",57 m²,1.0,1.0,,R$ 1.600 /mês,condomínio R$ 608,IPTU R$ 121,-22.975793300000003,-43.1912304,Rua Bolivar, Copacabana,1600,371.91
"Rua Ituverava, Anil",75 m²,2.0,2.0,,R$ 1.500 /mês,condomínio R$ 300,IPTU R$ 75,-22.9454515,-43.33619829999999,Rua Ituverava, Anil,1500,348.67
"Rua Siqueira Campos, Copacabana",65 m²,1.0,2.0,,R$ 1.900 /mês,,,-22.968515300000004,-43.1850961,Rua Siqueira Campos, Copacabana,1900,441.65
"Avenida José Luiz Ferraz, Recreio dos Bandeirantes",92 m²,2.0,3.0,1.0,R$ 1.900 /mês,condomínio R$ 97.000,IPTU R$ 230,-23.0217111,-43.486967799999995,Avenida José Luiz Ferraz, Recreio dos Bandeirantes,1900,441.65
"Rua Ribeiro Guimarães, Vila Isabel",70 m²,2.0,2.0,2.0,R$ 2.000 /mês,condomínio R$ 745,IPTU R$ 103,-22.9190092,-43.2373143,Rua Ribeiro Guimarães, Vila Isabel,2000,464.89
"Estrada Pau-ferro, Pechincha",55 m²,2.0,2.0,1.0,R$ 1.700 /mês,condomínio R$ 342,IPTU R$ 94,-22.928988,-43.3534191,Estrada Pau-ferro, Pechincha,1700,395.16
"Praia do Jequia, Ribeira",105 m²,3.0,2.0,1.0,R$ 2.000 /mês,condomínio R$ 510,,-22.8264095,-43.1726886,Praia do Jequia, Ribeira,2000,464.89
"Rua Comendador Soares, Centro",61 m²,2.0,2.0,1.0,R$ 1.800 /mês,condomínio R$ 600,IPTU R$ 80,-22.7604893,-43.4560811,Rua Comendador Soares, Centro,1800,418.4
"Avenida José Luiz Ferraz, Recreio dos Bandeirantes",70 m²,2.0,2.0,1.0,R$ 1.800 /mês,condomínio R$ 1.000,IPTU R$ 185,-23.0217111,-43.486967799999995,Avenida José Luiz Ferraz, Recreio dos Bandeirantes,1800,418.4
"Rua Prudente de Morais, Ipanema",86 m²,2.0,2.0,1.0,R$ 12.000 /mês,condomínio R$ 4.348,IPTU R$ 813,-22.9855992,-43.1969718,Rua Prudente de Morais, Ipanema,12000,2789.35
"Rua Marquês de São Vicente, Gávea",101 m²,,3.0,1.0,R$ 3.400 /mês,condomínio R$ 1.105,IPTU R$ 409,-22.9770236,-43.230294,Rua Marquês de São Vicente, Gávea,3400,790.32
"Rua Conde de Porto Alegre, Rocha",50 m²,1.0,1.0,,R$ 1.100 /mês,condomínio R$ 250,IPTU R$ 22,-22.8979639,-43.2504148,Rua Conde de Porto Alegre, Rocha,1100,255.69
"Rua Alberto de Campos, Ipanema",36 m²,1.0,1.0,,R$ 2.350.000 /mês,condomínio R$ 550,IPTU R$ 79,-22.981271300000003,-43.2004164,Rua Alberto de Campos, Ipanema,2350000,546248.1
"Rua Aristídes Lôbo, Estácio",70 m²,2.0,2.0,1.0,R$ 1.500 /mês,condomínio R$ 942,IPTU R$ 50,-22.9166361,-43.2097521,Rua Aristídes Lôbo, Estácio,1500,348.67
"Rua Anchieta, Leme",140 m²,1.0,3.0,,R$ 3.300 /mês,condomínio R$ 1.581,IPTU R$ 443,-22.9636043,-43.1696615,Rua Anchieta, Leme,3300,767.07
"Rua José Linhares, Leblon",200 m²,6.0,4.0,2.0,R$ 11.000 /mês,condomínio R$ 6.000,IPTU R$ 935,-22.9840518,-43.221537899999994,Rua José Linhares, Leblon,11000,2556.91
"Avenida Rui Barbosa, Flamengo",280 m²,2.0,4.0,2.0,R$ 7.000 /mês,condomínio R$ 2.200,IPTU R$ 400,-22.9387029,-43.17358170000001,Avenida Rui Barbosa, Flamengo,7000,1627.12
"Praça Antônio Callado, Barra da Tijuca",81 m²,3.0,3.0,,R$ 2.200 /mês,condomínio R$ 1.415,IPTU R$ 265,-23.002106100000002,-43.39327614523657,Praça Antônio Callado, Barra da Tijuca,2200,511.38
"Rua Santa Alexandrina, Rio Comprido",82 m²,1.0,2.0,1.0,R$ 1.500 /mês,condomínio R$ 800,IPTU R$ 40,-22.9344154,-43.2100703,Rua Santa Alexandrina, Rio Comprido,1500,348.67
"Avenida Braz de Pina, Penha Circular",58 m²,2.0,2.0,1.0,R$ 950 /mês,condomínio R$ 550,IPTU R$ 101,-22.8326425,-43.2842228,Avenida Braz de Pina, Penha Circular,950,220.82
"Rua Adalberto Ferreira, Leblon",120 m²,,2.0,,R$ 10.500 /mês,condomínio R$ 1.565,IPTU R$ 699,-22.9798663,-43.222772799999994,Rua Adalberto Ferreira, Leblon,10500,2440.68
"Avenida Lúcio Costa, Barra da Tijuca",143 m²,3.0,3.0,2.0,R$ 5.000 /mês,condomínio R$ 2.120,IPTU R$ 856,-23.014923800000002,-43.407209,Avenida Lúcio Costa, Barra da Tijuca,5000,1162.23
"Rua do Bispo, Rio Comprido",66 m²,1.0,1.0,1.0,R$ 1.500 /mês,condomínio R$ 576,IPTU R$ 53,-22.9247841,-43.2096901,Rua do Bispo, Rio Comprido,1500,348.67
"Avenida Rui Barbosa, Flamengo",250 m²,3.0,3.0,1.0,R$ 7.000 /mês,condomínio R$ 1.640,IPTU R$ 860,-22.9387029,-43.17358170000001,Avenida Rui Barbosa, Flamengo,7000,1627.12
"Rua Visconde de Santa Isabel, Vila Isabel",52 m²,1.0,1.0,2.0,R$ 1.400 /mês,condomínio R$ 500,,-22.917009,-43.25892879999999,Rua Visconde de Santa Isabel, Vila Isabel,1400,325.42
"Ipanema, Rio de Janeiro",180 m²,3.0,4.0,1.0,R$ 12.850 /mês,condomínio R$ 2.900,IPTU R$ 1.250,-22.9839557,-43.202216299999996,Ipanema, Rio de Janeiro,12850,2986.93
"Rua Ipanema, Barra da Tijuca",161 m²,2.0,3.0,2.0,R$ 4.500 /mês,condomínio R$ 2.478,IPTU R$ 451,-23.0011303,-43.3608268,Rua Ipanema, Barra da Tijuca,4500,1046.01
"Avenida Malibu, Barra da Tijuca",65 m²,,1.0,1.0,R$ 2.350 /mês,,,-23.0015257,-43.395351700000006,Avenida Malibu, Barra da Tijuca,2350,546.25
"Rua Correa Dutra, Flamengo",44 m²,,1.0,1.0,R$ 2.000 /mês,condomínio R$ 720,IPTU R$ 118,-22.928182500000002,-43.1748537,Rua Correa Dutra, Flamengo,2000,464.89
"Rua Figueiredo Magalhães, Copacabana",30 m²,1.0,1.0,,R$ 1.200 /mês,condomínio R$ 850,IPTU R$ 60,-22.9674748,-43.187453600000005,Rua Figueiredo Magalhães, Copacabana,1200,278.94
"Rua Evandro de Castro Lima, Recreio dos Bandeirantes",76 m²,2.0,2.0,1.0,R$ 1.700 /mês,condomínio R$ 785,IPTU R$ 113,-23.0255504,-43.490526200000005,Rua Evandro de Castro Lima, Recreio dos Bandeirantes,1700,395.16
"Avenida Niemeyer, São Conrado",133 m²,2.0,3.0,1.0,R$ 3.500 /mês,condomínio R$ 1.606,IPTU R$ 340,-22.9986176,-43.2529098,Avenida Niemeyer, São Conrado,3500,813.56
"Rua Marquês de São Vicente, Gávea",75 m²,2.0,2.0,1.0,R$ 4.400 /mês,condomínio R$ 830,IPTU R$ 1.745,-22.9770236,-43.230294,Rua Marquês de São Vicente, Gávea,4400,1022.76
"Rua Soldado Constantino Maroqui, Pedra de Guaratiba",169 m²,2.0,2.0,,R$ 850 /mês,condomínio R$ 150,IPTU R$ 134,-23.0018092,-43.6260636,Rua Soldado Constantino Maroqui, Pedra de Guaratiba,850,197.58
"Avenida das Américas, Recreio dos Bandeirantes",70 m²,1.0,3.0,1.0,R$ 1.600 /mês,condomínio R$ 1.000,IPTU R$ 183,-23.0063466,-43.4358159,Avenida das Américas, Recreio dos Bandeirantes,1600,371.91
"Rua Murundu, Padre Miguel",52 m²,1.0,2.0,1.0,R$ 850 /mês,,,-22.8878289,-43.4440807,Rua Murundu, Padre Miguel,850,197.58
"Estrada do Rio Grande, Jacarepaguá",200 m²,3.0,3.0,2.0,R$ 2.500 /mês,condomínio R$ 462,IPTU R$ 250,-22.9182569,-43.3964923,Estrada do Rio Grande, Jacarepaguá,2500,581.12
"Rua Babaçu, Jardim Guanabara",54 m²,1.0,2.0,1.0,R$ 1.200 /mês,condomínio R$ 385,IPTU R$ 82,-22.8142113,-43.1951416,Rua Babaçu, Jardim Guanabara,1200,278.94
"Avenida Salvador Allende, Recreio dos Bandeirantes",87 m²,2.0,3.0,2.0,R$ 1.800 /mês,condomínio R$ 1.200,IPTU R$ 200,-22.9966799,-43.4249176,Avenida Salvador Allende, Recreio dos Bandeirantes,1800,418.4
"Rua Artur Tavares da Silva, Realengo",80 m²,1.0,2.0,,R$ 1.000 /mês,,,-22.8772743,-43.4301032,Rua Artur Tavares da Silva, Realengo,1000,232.45
"Avenida Pepe, Barra da Tijuca",91 m²,2.0,2.0,1.0,R$ 4.900 /mês,condomínio R$ 3.427,IPTU R$ 622,-23.0143229,-43.2972041,Avenida Pepe, Barra da Tijuca,4900,1138.99
"Rua Brigadeiro João Manuel, Tanque",85 m²,1.0,2.0,1.0,R$ 1.200 /mês,IPTU R$ 54,,-22.9166067,-43.3698172,Rua Brigadeiro João Manuel, Tanque,1200,278.94
"Rua Maria Quitéria, Ipanema",152 m²,3.0,4.0,2.0,R$ 6.000 /mês,condomínio R$ 2.200,IPTU R$ 750,-22.9864374,-43.20719879999999,Rua Maria Quitéria, Ipanema,6000,1394.68
"Rua Pesqueira, Bonsucesso",35 m²,1.0,1.0,,R$ 850 /mês,IPTU R$ 14,,-22.870264399999996,-43.251275899999996,Rua Pesqueira, Bonsucesso,850,197.58
"Rua João Líra, Leblon",150 m²,3.0,3.0,1.0,R$ 12.000 /mês,condomínio R$ 224.600,IPTU R$ 62.800,-22.984189699999998,-43.2223282,Rua João Líra, Leblon,12000,2789.35
"Rua Basílio de Brito, Cachambi",78 m²,2.0,2.0,1.0,R$ 1.000 /mês,condomínio R$ 650,,-22.8887124,-43.268156299999994,Rua Basílio de Brito, Cachambi,1000,232.45
"Avenida Epitácio Pessoa, Ipanema",80 m²,2.0,2.0,1.0,R$ 3.500 /mês,condomínio R$ 1.160,,-22.9805083,-43.213479299999996,Avenida Epitácio Pessoa, Ipanema,3500,813.56
"Rua Joaquim Nabuco, Copacabana",212 m²,4.0,4.0,2.0,R$ 9.000 /mês,condomínio R$ 2.200,IPTU R$ 914,-22.9862574,-43.1922967,Rua Joaquim Nabuco, Copacabana,9000,2092.01
"Avenida Epitácio Pessoa, Ipanema",120 m²,2.0,2.0,1.0,R$ 8.000 /mês,condomínio R$ 3.699,IPTU R$ 574,-22.9805083,-43.213479299999996,Avenida Epitácio Pessoa, Ipanema,8000,1859.57
"Avenida Vice-Presidente José Alencar, Jacarepaguá",113 m²,2.0,3.0,2.0,R$ 4.000 /mês,condomínio R$ 1.750,IPTU R$ 200,-22.9662234,-43.382768799999994,Avenida Vice-Presidente José Alencar, Jacarepaguá,4000,929.78
"Avenida Embaixador Abelardo Bueno, Barra da Tijuca",72 m²,2.0,2.0,1.0,R$ 3.000 /mês,condomínio R$ 926,IPTU R$ 130,-22.9732812,-43.379219299999995,Avenida Embaixador Abelardo Bueno, Barra da Tijuca,3000,697.34
"Avenida Flamboyants da Península, Barra da Tijuca",77 m²,2.0,2.0,2.0,R$ 2.700 /mês,condomínio R$ 1.350,IPTU R$ 225,-22.988339899999996,-43.3529408,Avenida Flamboyants da Península, Barra da Tijuca,2700,627.6
"Rua José Linhares, Leblon",205 m²,4.0,4.0,1.0,R$ 13.000 /mês,condomínio R$ 6.000,IPTU R$ 1.214,-22.9840518,-43.221537899999994,Rua José Linhares, Leblon,13000,3021.8
"Rua Filomena Nunes, Olaria",63 m²,2.0,2.0,1.0,R$ 1.100 /mês,condomínio R$ 462,IPTU R$ 28,-22.841664,-43.2644477,Rua Filomena Nunes, Olaria,1100,255.69
"Rua Leopoldino Bastos, Engenho Novo",79 m²,2.0,2.0,,R$ 790 /mês,condomínio R$ 700,IPTU R$ 54,-22.9137898,-43.2662065,Rua Leopoldino Bastos, Engenho Novo,790,183.63
"Rua José Américo de Almeida, Recreio dos Bandeirantes",144 m²,3.0,3.0,3.0,R$ 2.800 /mês,condomínio R$ 823,IPTU R$ 382,-23.0185151,-43.4634021,Rua José Américo de Almeida, Recreio dos Bandeirantes,2800,650.85
"Rua Marechal Antônio Sousa, Jardim América",26 m²,1.0,1.0,,R$ 700 /mês,IPTU R$ 10,,-22.8147968,-43.3181717,Rua Marechal Antônio Sousa, Jardim América,700,162.71
"Avenida Geremário Dantas, Pechincha",59 m²,2.0,2.0,1.0,R$ 1.100 /mês,condomínio R$ 500,IPTU R$ 100,-22.9248493,-43.3596031,Avenida Geremário Dantas, Pechincha,1100,255.69
"Rua Lópes Ferreira, Irajá",60 m²,,2.0,,R$ 1.000 /mês,IPTU R$ 10,,-22.849624300000002,-43.3354635,Rua Lópes Ferreira, Irajá,1000,232.45
"Rua Geminiano Gois, Freguesia (Jacarepaguá)",176 m²,2.0,3.0,2.0,R$ 2.900 /mês,condomínio R$ 1.400,IPTU R$ 2.300,-22.937072600000004,-43.3354416,Rua Geminiano Gois, Freguesia (Jacarepaguá),2900,674.09
"Rua Vilela Tavares, Méier",108 m²,3.0,3.0,2.0,R$ 2.500 /mês,condomínio R$ 1.183,IPTU R$ 209,-22.907383199999998,-43.2876155,Rua Vilela Tavares, Méier,2500,581.12
"Rua Timóteo da Costa, Leblon",450 m²,3.0,3.0,4.0,R$ 15.000 /mês,condomínio R$ 3.200,IPTU R$ 1.150,-22.984338600000005,-43.2328045,Rua Timóteo da Costa, Leblon,15000,3486.69
"Rua Figueiredo de Magalhães, Copacabana",52 m²,1.0,2.0,,R$ 1.900 /mês,condomínio R$ 800,IPTU R$ 438,-22.969034100000002,-43.187025899999995,Rua Figueiredo de Magalhães, Copacabana,1900,441.65
"Rua Doutor Celestino, Centro",80 m²,2.0,1.0,,R$ 600 /mês,condomínio R$ 806,IPTU R$ 99,-22.8953827,-43.115416700000004,Rua Doutor Celestino, Centro,600,139.47
"Rua Teodoro da Silva, Vila Isabel",70 m²,2.0,2.0,1.0,R$ 1.200 /mês,condomínio R$ 658,IPTU R$ 98,-22.917662399999998,-43.245957700000005,Rua Teodoro da Silva, Vila Isabel,1200,278.94
"Rua Amaral, Andaraí",90 m²,2.0,2.0,1.0,R$ 1.600 /mês,condomínio R$ 1.051,IPTU R$ 143,-22.92292,-43.244423700000006,Rua Amaral, Andaraí,1600,371.91
"Rua Farme de Amoedo, Ipanema",280 m²,3.0,4.0,2.0,R$ 14.000 /mês,condomínio R$ 3.600,IPTU R$ 1.200,-22.9843423,-43.2007642,Rua Farme de Amoedo, Ipanema,14000,3254.24
"Rua das Laranjeiras, Laranjeiras",95 m²,,2.0,1.0,R$ 2.800 /mês,condomínio R$ 1.300,,-22.9323641,-43.1821872,Rua das Laranjeiras, Laranjeiras,2800,650.85
"Rua Intendente Cunha Menezes, Méier",61 m²,1.0,2.0,1.0,R$ 850 /mês,condomínio R$ 609,IPTU R$ 48,-22.905018300000002,-43.2907075,Rua Intendente Cunha Menezes, Méier,850,197.58
"Avenida Prefeito Mendes de Morais, São Conrado",450 m²,7.0,4.0,4.0,R$ 18.000 /mês,condomínio R$ 6.500,IPTU R$ 3.300,-22.9997388,-43.2684256,Avenida Prefeito Mendes de Morais, São Conrado,18000,4184.03
"Avenida Atlântica, Copacabana",680 m²,5.0,4.0,3.0,R$ 27.000 /mês,condomínio R$ 6.500,IPTU R$ 3.000,-22.9766415,-43.188297,Avenida Atlântica, Copacabana,27000,6276.04
"Praia do Flamengo, Flamengo",235 m²,,3.0,,R$ 17.000 /mês,condomínio R$ 2.350,IPTU R$ 690,-22.9282465,-43.17079041917478,Praia do Flamengo, Flamengo,17000,3951.58
"Rua Redentor, Ipanema",166 m²,2.0,3.0,1.0,R$ 7.500 /mês,condomínio R$ 1.882,IPTU R$ 784,-22.9821776,-43.2133851,Rua Redentor, Ipanema,7500,1743.35
"Rua Décio Vilares, Copacabana",117 m²,1.0,2.0,,R$ 3.000 /mês,condomínio R$ 550,IPTU R$ 44,-22.9663701,-43.1901344,Rua Décio Vilares, Copacabana,3000,697.34
"Rua Gago Coutinho, Laranjeiras",350 m²,,4.0,1.0,R$ 10.000 /mês,condomínio R$ 2.400,,-22.9318016,-43.1823899,Rua Gago Coutinho, Laranjeiras,10000,2324.46
"Rua dos Inválidos, Centro",50 m²,1.0,1.0,,R$ 1.300 /mês,condomínio R$ 495,IPTU R$ 62,-22.9095503,-43.185598999999996,Rua dos Inválidos, Centro,1300,302.18
"Pechincha, Rio de Janeiro",70 m²,1.0,2.0,1.0,R$ 1.400 /mês,condomínio R$ 594,IPTU R$ 44,-22.928988,-43.353419099999996,Pechincha, Rio de Janeiro,1400,325.42
"Rua Coronel Paulo Malta Rezende, Barra da Tijuca",64 m²,1.0,2.0,1.0,R$ 2.200 /mês,condomínio R$ 765,IPTU R$ 235,-23.004933800000003,-43.3312167,Rua Coronel Paulo Malta Rezende, Barra da Tijuca,2200,511.38
"Rua Bulhões de Carvalho, Copacabana",130 m²,3.0,2.0,1.0,R$ 5.000 /mês,condomínio R$ 1.161,IPTU R$ 253,-22.985511,-43.19287620000001,Rua Bulhões de Carvalho, Copacabana,5000,1162.23
"Rua Pinto Teles, Praça Seca",64 m²,,2.0,1.0,R$ 1.000 /mês,condomínio R$ 255,IPTU R$ 17,-22.88537,-43.352706500000004,Rua Pinto Teles, Praça Seca,1000,232.45
"Rua Olímpia do Couto, Pechincha",69 m²,1.0,2.0,1.0,R$ 1.500 /mês,condomínio R$ 624,IPTU R$ 53,-22.934253100000003,-43.351368900000004,Rua Olímpia do Couto, Pechincha,1500,348.67
"Rua Paulo Moura, Barra da Tijuca",82 m²,3.0,2.0,1.0,R$ 2.500 /mês,condomínio R$ 950,IPTU R$ 290,-22.9920076,-43.4023471,Rua Paulo Moura, Barra da Tijuca,2500,581.12
"Rua Florianópolis, Praça Seca",65 m²,2.0,2.0,1.0,R$ 650 /mês,condomínio R$ 535,IPTU R$ 54,-22.9014952,-43.3525042,Rua Florianópolis, Praça Seca,650,151.09
"Rua Mariz e Barros, Tijuca",94 m²,4.0,2.0,1.0,R$ 2.800 /mês,condomínio R$ 421,IPTU R$ 212,-22.9130141,-43.216724799999994,Rua Mariz e Barros, Tijuca,2800,650.85
"Jacarepaguá, Rio de Janeiro",60 m²,2.0,2.0,1.0,R$ 1.300 /mês,condomínio R$ 575,IPTU R$ 71,-22.9665038,-43.371319299999996,Jacarepaguá, Rio de Janeiro,1300,302.18
"Rua Engenheiro Enaldo Cravo Peixoto, Tijuca",60 m²,2.0,1.0,1.0,R$ 1.950 /mês,condomínio R$ 643,IPTU R$ 700,-22.9219495,-43.2345965,Rua Engenheiro Enaldo Cravo Peixoto, Tijuca,1950,453.27
"Rua Jacui, Braz de Pina",70 m²,2.0,2.0,,R$ 800 /mês,condomínio R$ 200,,-22.8355116,-43.3182064,Rua Jacui, Braz de Pina,800,185.96
"Rua Franco Zampari, Jacarepaguá",78 m²,2.0,2.0,1.0,R$ 2.600 /mês,condomínio R$ 809,IPTU R$ 158,-22.9757782,-43.373473,Rua Franco Zampari, Jacarepaguá,2600,604.36
"Rua Doutor Padilha, Engenho de Dentro",65 m²,,2.0,1.0,R$ 1.390 /mês,condomínio R$ 522,IPTU R$ 56,-22.892945,-43.2891639,Rua Doutor Padilha, Engenho de Dentro,1390,323.1
"Rua Francisco Fragoso, Encantado",70 m²,2.0,2.0,,R$ 900 /mês,condomínio R$ 200,,-22.8974155,-43.307092100000006,Rua Francisco Fragoso, Encantado,900,209.2
"Rua Tirol, Freguesia (Jacarepaguá)",84 m²,2.0,2.0,2.0,R$ 1.400 /mês,condomínio R$ 550,,-22.9396582,-43.3369363,Rua Tirol, Freguesia (Jacarepaguá),1400,325.42
"Rua Alcides Lima, Jacarepaguá",70 m²,2.0,2.0,1.0,R$ 1.590 /mês,condomínio R$ 360,IPTU R$ 82,-22.9451467,-43.3374151,Rua Alcides Lima, Jacarepaguá,1590,369.59
"Rua Queiros Júnior, Jacarepaguá",70 m²,2.0,2.0,1.0,R$ 2.300 /mês,condomínio R$ 791,IPTU R$ 99,-22.970812600000002,-43.3943784,Rua Queiros Júnior, Jacarepaguá,2300,534.63
"Rua General Bruce, São Cristóvão",54 m²,2.0,2.0,1.0,R$ 1.600 /mês,condomínio R$ 630,IPTU R$ 40,-22.8947555,-43.2215672,Rua General Bruce, São Cristóvão,1600,371.91
"Avenida Prefeito Dulcídio Cardoso, Barra da Tijuca",92 m²,3.0,2.0,1.0,R$ 2.600 /mês,condomínio R$ 1.400,IPTU R$ 240,-23.0048388,-43.366279799999994,Avenida Prefeito Dulcídio Cardoso, Barra da Tijuca,2600,604.36
"Rua Carlos de Laet, Tijuca",71 m²,2.0,2.0,1.0,R$ 1.700 /mês,condomínio R$ 760,IPTU R$ 163,-22.9264873,-43.2362387,Rua Carlos de Laet, Tijuca,1700,395.16
"Avenida Afrânio de Melo Franco, Leblon",134 m²,4.0,4.0,2.0,R$ 6.500 /mês,condomínio R$ 1.800,IPTU R$ 539,-22.9790043,-43.21843320000001,Avenida Afrânio de Melo Franco, Leblon,6500,1510.9
"Rua Barão da Torre, Ipanema",150 m²,2.0,3.0,1.0,R$ 4.000 /mês,condomínio R$ 1.700,IPTU R$ 300,-22.983158399999997,-43.2050161,Rua Barão da Torre, Ipanema,4000,929.78
"Jardim Guanabara, Rio de Janeiro",92 m²,2.0,3.0,2.0,R$ 1.700 /mês,condomínio R$ 656,IPTU R$ 147,-22.8128362,-43.2007792,Jardim Guanabara, Rio de Janeiro,1700,395.16
"Estrada dos Bandeirantes, Camorim",51 m²,2.0,2.0,1.0,R$ 1.300 /mês,condomínio R$ 620,IPTU R$ 91,-22.978555800000002,-43.4178749,Estrada dos Bandeirantes, Camorim,1300,302.18
"Rua Desembargador Oldemar Pacheco, Vista Alegre",70 m²,2.0,2.0,1.0,R$ 1.500 /mês,condomínio R$ 250,IPTU R$ 30,-22.8306464,-43.3137382,Rua Desembargador Oldemar Pacheco, Vista Alegre,1500,348.67
"Avenida Afonso Arinos de Melo Franco, Barra da Tijuca",72 m²,,2.0,1.0,R$ 2.100 /mês,condomínio R$ 1.130,IPTU R$ 240,-22.9997404,-43.3659929,Avenida Afonso Arinos de Melo Franco, Barra da Tijuca,2100,488.14
"Rua da Passagem, Botafogo",50 m²,1.0,1.0,1.0,R$ 2.000 /mês,condomínio R$ 557,IPTU R$ 112,-22.9535105,-43.181536799999996,Rua da Passagem, Botafogo,2000,464.89
"Rua do Humaitá, Humaitá",120 m²,3.0,3.0,2.0,R$ 4.500 /mês,condomínio R$ 1.100,IPTU R$ 280,-27.5660564,-53.9719817,Rua do Humaitá, Humaitá,4500,1046.01
"Avenida Prefeito Dulcídio Cardoso, Barra da Tijuca",80 m²,1.0,1.0,1.0,R$ 3.300 /mês,condomínio R$ 705,IPTU R$ 250,-23.0048388,-43.366279799999994,Avenida Prefeito Dulcídio Cardoso, Barra da Tijuca,3300,767.07
"Rua Samuel das Neves, Pechincha",56 m²,2.0,2.0,1.0,R$ 1.600 /mês,condomínio R$ 520,IPTU R$ 650,-22.927716699999998,-43.359089600000004,Rua Samuel das Neves, Pechincha,1600,371.91
"Estrada do Vidigal, Vidigal",50 m²,1.0,1.0,1.0,R$ 1.700 /mês,,,-22.989396600000003,-43.2304766,Estrada do Vidigal, Vidigal,1700,395.16
"Rua Capitão Machado, Praça Seca",60 m²,1.0,2.0,1.0,R$ 800 /mês,condomínio R$ 310,IPTU R$ 20,-22.896601399999998,-43.3447441,Rua Capitão Machado, Praça Seca,800,185.96
"Avenida Prefeito Dulcídio Cardoso, Barra da Tijuca",65 m²,2.0,2.0,1.0,R$ 2.300 /mês,condomínio R$ 1.100,IPTU R$ 200,-23.0048388,-43.366279799999994,Avenida Prefeito Dulcídio Cardoso, Barra da Tijuca,2300,534.63
"Rua Assunção, Botafogo",86 m²,2.0,2.0,1.0,R$ 3.600 /mês,condomínio R$ 950,IPTU R$ 258,-22.943613199999998,-43.185880499999996,Rua Assunção, Botafogo,3600,836.81
"Rua Homem de Melo, Tijuca",80 m²,4.0,2.0,2.0,R$ 3.000 /mês,condomínio R$ 800,IPTU R$ 400,-22.9332703,-43.237241,Rua Homem de Melo, Tijuca,3000,697.34
"Rua Morais e Silva, Maracanã",100 m²,2.0,3.0,2.0,R$ 3.100 /mês,condomínio R$ 786,IPTU R$ 106,-22.912447600000004,-43.2220924,Rua Morais e Silva, Maracanã,3100,720.58
"Rua Aroazes, Jacarepaguá",78 m²,2.0,3.0,1.0,R$ 1.800 /mês,condomínio R$ 800,IPTU R$ 151,-22.9709611,-43.395351399999996,Rua Aroazes, Jacarepaguá,1800,418.4
"Rua Mearim, Grajaú",100 m²,1.0,2.0,1.0,R$ 1.400 /mês,condomínio R$ 512,IPTU R$ 154,-22.920916300000002,-43.2629986,Rua Mearim, Grajaú,1400,325.42
"Rua Jorge Rudge, Vila Isabel",72 m²,1.0,2.0,1.0,R$ 1.350 /mês,condomínio R$ 655,IPTU R$ 93,-22.912677600000002,-43.23876679999999,Rua Jorge Rudge, Vila Isabel,1350,313.8
"Avenida Gilberto Amado, Barra da Tijuca",210 m²,1.0,4.0,3.0,R$ 4.500 /mês,condomínio R$ 1.400,IPTU R$ 672,-23.0132586,-43.298108500000005,Avenida Gilberto Amado, Barra da Tijuca,4500,1046.01
"Rua Carvalho Azevedo, Lagoa",280 m²,2.0,4.0,2.0,R$ 10.000 /mês,condomínio R$ 3.818,IPTU R$ 1.026,-22.9641329,-43.2028646,Rua Carvalho Azevedo, Lagoa,10000,2324.46
"Avenida Nossa Senhora de Copacabana, Copacabana",41 m²,1.0,1.0,,R$ 1.850 /mês,condomínio R$ 550,IPTU R$ 53,-22.968132699999998,-43.1830609,Avenida Nossa Senhora de Copacabana, Copacabana,1850,430.03
"Rua Mariz e Barros, Tijuca",60 m²,2.0,2.0,,R$ 1.400 /mês,condomínio R$ 550,IPTU R$ 26,-22.9130141,-43.216724799999994,Rua Mariz e Barros, Tijuca,1400,325.42
"Estrada Pau-ferro, Pechincha",65 m²,2.0,1.0,1.0,R$ 1.000 /mês,condomínio R$ 500,IPTU R$ 40,-22.928988,-43.3534191,Estrada Pau-ferro, Pechincha,1000,232.45
"Rua Vilela Tavares, Méier",82 m²,2.0,3.0,1.0,R$ 1.200 /mês,condomínio R$ 750,IPTU R$ 80,-22.907383199999998,-43.2876155,Rua Vilela Tavares, Méier,1200,278.94
"Estrada do Barro Vermelho, Rocha Miranda",57 m²,2.0,1.0,1.0,R$ 850 /mês,condomínio R$ 344,IPTU R$ 82,-22.8472129,-43.340518599999996,Estrada do Barro Vermelho, Rocha Miranda,850,197.58
"Rua Pompeu Loureiro, Copacabana",103 m²,1.0,3.0,1.0,R$ 3.200 /mês,condomínio R$ 900,IPTU R$ 3.500,-22.975583899999997,-43.193523600000006,Rua Pompeu Loureiro, Copacabana,3200,743.83
"Rua Antônio Parreiras, Ipanema",55 m²,2.0,2.0,,R$ 2.900 /mês,condomínio R$ 1.358,IPTU R$ 117,-22.9838087,-43.1952591,Rua Antônio Parreiras, Ipanema,2900,674.09
"Rua Henrique Scheid, Engenho de Dentro",48 m²,1.0,2.0,,R$ 850 /mês,condomínio R$ 509,IPTU R$ 51,-22.889453200000002,-43.2898959,Rua Henrique Scheid, Engenho de Dentro,850,197.58
"Rua Marialva, Higienópolis",45 m²,1.0,1.0,,R$ 700 /mês,,,-22.8698509,-43.2674381,Rua Marialva, Higienópolis,700,162.71
"Rua Grajaú, Grajaú",84 m²,1.0,2.0,1.0,R$ 1.600 /mês,condomínio R$ 656,IPTU R$ 100,-22.923590700000002,-43.2617675,Rua Grajaú, Grajaú,1600,371.91
"Rua J. Carlos, Jardim Botânico",105 m²,1.0,3.0,1.0,R$ 3.700 /mês,condomínio R$ 1.640,IPTU R$ 383,-22.9600532,-43.208837,Rua J. Carlos, Jardim Botânico,3700,860.05
"Avenida Oswaldo Cruz, Flamengo",208 m²,5.0,4.0,1.0,R$ 3.900 /mês,condomínio R$ 2.322,IPTU R$ 551,-22.9393527,-43.1745967,Avenida Oswaldo Cruz, Flamengo,3900,906.54
"Rua José Linhares, Leblon",85 m²,1.0,2.0,,R$ 3.500 /mês,condomínio R$ 689,IPTU R$ 313,-22.9840518,-43.221537899999994,Rua José Linhares, Leblon,3500,813.56
"Recreio dos Bandeirantes, Rio de Janeiro",72 m²,2.0,2.0,1.0,R$ 1.400 /mês,condomínio R$ 900,IPTU R$ 109,-23.018515100000002,-43.4634021,Recreio dos Bandeirantes, Rio de Janeiro,1400,325.42
"Rua Tirol, Freguesia (Jacarepaguá)",120 m²,1.0,3.0,2.0,R$ 1.500 /mês,condomínio R$ 1.287,IPTU R$ 190,-22.9396582,-43.3369363,Rua Tirol, Freguesia (Jacarepaguá),1500,348.67
"Avenida Rui Barbosa, Flamengo",300 m²,3.0,4.0,1.0,R$ 15.000 /mês,condomínio R$ 1.900,IPTU R$ 860,-22.9387029,-43.17358170000001,Avenida Rui Barbosa, Flamengo,15000,3486.69
"Rua Carlos da Rocha Faria, Jardim Botânico",96 m²,2.0,2.0,1.0,R$ 6.800 /mês,condomínio R$ 1.900,IPTU R$ 268,-22.962529699999997,-43.2257912,Rua Carlos da Rocha Faria, Jardim Botânico,6800,1580.63
"Avenida Flamboyants da Península, Barra da Tijuca",75 m²,2.0,2.0,1.0,R$ 2.500 /mês,condomínio R$ 1.330,IPTU R$ 247,-22.988339899999996,-43.3529408,Avenida Flamboyants da Península, Barra da Tijuca,2500,581.12
"Rua Maria Angélica, Jardim Botânico",80 m²,3.0,2.0,1.0,R$ 2.500 /mês,condomínio R$ 1.465,IPTU R$ 314,-22.960081,-43.2091516,Rua Maria Angélica, Jardim Botânico,2500,581.12
"Rua Ituverava, Freguesia de Jacarepaguá",154 m²,1.0,3.0,3.0,R$ 3.000 /mês,condomínio R$ 840,IPTU R$ 571,-22.9408899,-43.3422564,Rua Ituverava, Freguesia de Jacarepaguá,3000,697.34
"Rua Barão de Iguatemi, Tijuca",63 m²,2.0,2.0,,R$ 1.200 /mês,condomínio R$ 1.014,IPTU R$ 51,-22.9128075,-43.2141126,Rua Barão de Iguatemi, Tijuca,1200,278.94
"Rua Ovídio Cavalleiro, Recreio dos Bandeirantes",160 m²,1.0,3.0,2.0,R$ 2.950 /mês,condomínio R$ 780,IPTU R$ 350,-23.016118399999996,-43.455889500000005,Rua Ovídio Cavalleiro, Recreio dos Bandeirantes,2950,685.72
"Estrada dos Três Rios, Jacarepaguá",45 m²,1.0,1.0,1.0,R$ 900 /mês,condomínio R$ 495,IPTU R$ 46,-22.9258587,-43.3152522,Estrada dos Três Rios, Jacarepaguá,900,209.2
"Avenida Ayrton Senna, Barra da Tijuca",63 m²,1.0,1.0,1.0,R$ 1.700 /mês,condomínio R$ 1.195,IPTU R$ 228,-22.988001899999997,-43.3660133,Avenida Ayrton Senna, Barra da Tijuca,1700,395.16
"Rua Joana Angélica, Ipanema",100 m²,,2.0,1.0,R$ 7.000 /mês,condomínio R$ 2.341,IPTU R$ 640,-22.9832693,-43.204855,Rua Joana Angélica, Ipanema,7000,1627.12
"Rua Bispo Lacerda, Del Castilho",53 m²,2.0,2.0,1.0,R$ 2.200 /mês,condomínio R$ 600,IPTU R$ 34,-22.876306500000002,-43.2680946,Rua Bispo Lacerda, Del Castilho,2200,511.38
"Rua Fonte da Saudade, Lagoa",117 m²,2.0,3.0,2.0,R$ 7.200 /mês,condomínio R$ 1.600,IPTU R$ 382,-22.9607745,-43.2028991,Rua Fonte da Saudade, Lagoa,7200,1673.61
"Rua Conde de Irajá, Botafogo",107 m²,3.0,3.0,2.0,R$ 4.300 /mês,condomínio R$ 1.500,,-22.711015600000003,-43.464103,Rua Conde de Irajá, Botafogo,4300,999.52
"Rua Pedro Domingues, Encantado",42 m²,1.0,1.0,1.0,R$ 590 /mês,condomínio R$ 450,IPTU R$ 13,-22.8912676,-43.3031848,Rua Pedro Domingues, Encantado,590,137.14
"Rua do Fialho, Glória",26 m²,1.0,1.0,,R$ 1.050 /mês,condomínio R$ 430,IPTU R$ 25,-22.9218044,-43.180240399999995,Rua do Fialho, Glória,1050,244.07
"Rua Omar Bandeira Ramidan Sobrinho, Recreio dos Bandeirantes",124 m²,4.0,3.0,1.0,R$ 2.810 /mês,condomínio R$ 885,IPTU R$ 220,-23.0111148,-43.468742600000006,Rua Omar Bandeira Ramidan Sobrinho, Recreio dos Bandeirantes,2810,653.17
"Praça Augusto Ruschi, Recreio dos Bandeirantes",82 m²,3.0,3.0,2.0,R$ 1.700 /mês,condomínio R$ 560,IPTU R$ 204,-23.0160373,-43.451050869878465,Praça Augusto Ruschi, Recreio dos Bandeirantes,1700,395.16
"Rua Carlos Gois, Leblon",91 m²,2.0,3.0,1.0,R$ 5.000 /mês,condomínio R$ 1.392,IPTU R$ 381,-22.9842762,-43.219898799999996,Rua Carlos Gois, Leblon,5000,1162.23
"Avenida Atlântica, Copacabana",128 m²,2.0,3.0,1.0,R$ 5.900 /mês,condomínio R$ 1.571,IPTU R$ 612,-22.9766415,-43.188297,Avenida Atlântica, Copacabana,5900,1371.43
"Rua Cardeal Dom Sebastião Leme, Santa Teresa",65 m²,1.0,1.0,,R$ 2.200 /mês,condomínio R$ 350,IPTU R$ 30,-22.9173799,-43.18917929999999,Rua Cardeal Dom Sebastião Leme, Santa Teresa,2200,511.38
"Rua Jerônimo Monteiro, Leblon",70 m²,1.0,2.0,1.0,R$ 4.200 /mês,condomínio R$ 1.200,IPTU R$ 3.100,-22.9880907,-43.2278097,Rua Jerônimo Monteiro, Leblon,4200,976.27
"Rua Sacopa, Lagoa",160 m²,2.0,2.0,2.0,R$ 7.500 /mês,condomínio R$ 2.400,IPTU R$ 250,-22.9646379,-43.20259,Rua Sacopa, Lagoa,7500,1743.35
"Avenida Pasteur, Botafogo",60 m²,1.0,2.0,1.0,R$ 2.000 /mês,condomínio R$ 986,IPTU R$ 116,-22.951239800000003,-43.1752885,Avenida Pasteur, Botafogo,2000,464.89
"Rua Barão de Mesquita, Tijuca",70 m²,2.0,1.0,,R$ 1.800 /mês,condomínio R$ 700,IPTU R$ 569,-22.924047,-43.236416600000005,Rua Barão de Mesquita, Tijuca,1800,418.4
"Avenida das Américas, Recreio dos Bandeirantes",69 m²,2.0,2.0,1.0,R$ 1.850 /mês,condomínio R$ 992,IPTU R$ 189,-23.0063466,-43.4358159,Avenida das Américas, Recreio dos Bandeirantes,1850,430.03
"Rua Surui, Braz de Pina",50 m²,1.0,2.0,,R$ 900 /mês,condomínio R$ 120,,-22.8355116,-43.3182064,Rua Surui, Braz de Pina,900,209.2
"Rua Campinas, Grajaú",136 m²,3.0,3.0,2.0,R$ 2.000 /mês,condomínio R$ 1.187,IPTU R$ 223,-22.9258655,-43.2584503,Rua Campinas, Grajaú,2000,464.89
"Avenida Vice-Presidente José Alencar, Jacarepaguá",150 m²,2.0,4.0,2.0,R$ 4.000 /mês,condomínio R$ 2.338,IPTU R$ 373,-22.9662234,-43.382768799999994,Avenida Vice-Presidente José Alencar, Jacarepaguá,4000,929.78
"Rua Dezoito de Outubro, Tijuca",70 m²,2.0,2.0,,R$ 1.300 /mês,condomínio R$ 620,IPTU R$ 63,-22.9351193,-43.241991600000006,Rua Dezoito de Outubro, Tijuca,1300,302.18
"Rua Grão Pará, Engenho Novo",60 m²,,2.0,1.0,R$ 1.300 /mês,condomínio R$ 490,,-22.912072100000003,-43.2718329,Rua Grão Pará, Engenho Novo,1300,302.18
"Rua Uruguai, Tijuca",100 m²,1.0,3.0,,R$ 1.600 /mês,condomínio R$ 604,IPTU R$ 98,-22.9306672,-43.242268100000004,Rua Uruguai, Tijuca,1600,371.91
"Rua José Linhares, Leblon",606 m²,6.0,4.0,3.0,R$ 60.000 /mês,condomínio R$ 6.180,IPTU R$ 4.700,-22.9840518,-43.221537899999994,Rua José Linhares, Leblon,60000,13946.76
"Rua de Santana, Centro",57 m²,1.0,1.0,,R$ 1.500 /mês,condomínio R$ 430,IPTU R$ 54,-22.3716194,-41.784482700000005,Rua de Santana, Centro,1500,348.67
"Rua Joaquim Silva, Centro",41 m²,1.0,1.0,,R$ 1.100 /mês,condomínio R$ 500,IPTU R$ 28,-23.8277352,-49.431700299999996,Rua Joaquim Silva, Centro,1100,255.69
"Rua Mário Agostinelli, Jacarepaguá",200 m²,4.0,3.0,2.0,R$ 4.500 /mês,condomínio R$ 2.166,IPTU R$ 400,-22.9729585,-43.3822057,Rua Mário Agostinelli, Jacarepaguá,4500,1046.01
"Rua Santa Clara, Copacabana",54 m²,,2.0,,R$ 2.200 /mês,condomínio R$ 589,IPTU R$ 105,-22.9690461,-43.18946629999999,Rua Santa Clara, Copacabana,2200,511.38
"Rua Engenheiro Morsing, Grajaú",28 m²,1.0,1.0,,R$ 750 /mês,,,-22.9287208,-43.2638385,Rua Engenheiro Morsing, Grajaú,750,174.33
"Rua Doutor Renato Rocco, Tijuca",104 m²,1.0,2.0,1.0,R$ 1.650 /mês,condomínio R$ 1.484,IPTU R$ 181,-22.927070999999998,-43.2286731,Rua Doutor Renato Rocco, Tijuca,1650,383.54
"Rua Carlos Gois, Leblon",40 m²,1.0,1.0,,R$ 2.800 /mês,condomínio R$ 700,IPTU R$ 100,-22.9842762,-43.219898799999996,Rua Carlos Gois, Leblon,2800,650.85
"Rua Amilcar de Castro, Jacarepaguá",77 m²,,2.0,,R$ 1.700 /mês,condomínio R$ 1.530,IPTU R$ 154,-22.9691174,-43.385907399999994,Rua Amilcar de Castro, Jacarepaguá,1700,395.16
"Rua Paulo Barreto, Botafogo",79 m²,2.0,2.0,1.0,R$ 3.250 /mês,condomínio R$ 900,IPTU R$ 134,-22.954389499999998,-43.1867818,Rua Paulo Barreto, Botafogo,3250,755.45
"Avenida Vieira Souto, Ipanema",100 m²,3.0,2.0,1.0,R$ 13.000 /mês,condomínio R$ 4.128,IPTU R$ 1.628,-22.9862375,-43.209178200000004,Avenida Vieira Souto, Ipanema,13000,3021.8
"Avenida Vieira Souto, Ipanema",400 m²,1.0,3.0,2.0,R$ 25.000 /mês,condomínio R$ 7.200,IPTU R$ 3.300,-22.9862375,-43.209178200000004,Avenida Vieira Souto, Ipanema,25000,5811.15
"Rua Jacarandás da Península, Barra da Tijuca",160 m²,5.0,3.0,2.0,R$ 6.500 /mês,condomínio R$ 2.500,IPTU R$ 500,-22.9938255,-43.350948200000005,Rua Jacarandás da Península, Barra da Tijuca,6500,1510.9
"Rua Marquês de Pinedo, Laranjeiras",88 m²,2.0,2.0,1.0,R$ 2.800 /mês,condomínio R$ 913,,-22.938056600000003,-43.1832597,Rua Marquês de Pinedo, Laranjeiras,2800,650.85
"Rua Lópes Quintas, Jardim Botânico",97 m²,2.0,3.0,1.0,R$ 2.980 /mês,condomínio R$ 875,IPTU R$ 370,-22.9631893,-43.2225979,Rua Lópes Quintas, Jardim Botânico,2980,692.69
"Estrada dos Bandeirantes, Jacarepaguá",48 m²,1.0,2.0,1.0,R$ 1.500 /mês,condomínio R$ 590,IPTU R$ 8,-22.9548472,-43.3765899,Estrada dos Bandeirantes, Jacarepaguá,1500,348.67
"Avenida Lúcio Costa, Barra da Tijuca",198 m²,2.0,4.0,2.0,R$ 6.000 /mês,condomínio R$ 2.500,IPTU R$ 990,-23.014923800000002,-43.407209,Avenida Lúcio Costa, Barra da Tijuca,6000,1394.68
"Rua Omar Bandeira Ramidan Sobrinho, Recreio dos Bandeirantes",124 m²,4.0,3.0,1.0,R$ 2.890 /mês,condomínio R$ 880,IPTU R$ 210,-23.0111148,-43.468742600000006,Rua Omar Bandeira Ramidan Sobrinho, Recreio dos Bandeirantes,2890,671.77
"Rua Conde de Itaguaí, Tijuca",190 m²,1.0,4.0,2.0,R$ 4.480 /mês,condomínio R$ 1.601,,-22.9274038,-43.2370177,Rua Conde de Itaguaí, Tijuca,4480,1041.36
"Rua Alberto de Campos, Ipanema",120 m²,2.0,3.0,2.0,R$ 6.000 /mês,condomínio R$ 1.784,IPTU R$ 350,-22.981271300000003,-43.2004164,Rua Alberto de Campos, Ipanema,6000,1394.68
"Rua Araújo Lima, Andaraí",82 m²,2.0,3.0,2.0,R$ 2.500 /mês,condomínio R$ 1.021,IPTU R$ 164,-12.8059674,-41.3322919,Rua Araújo Lima, Andaraí,2500,581.12
"Rua das Laranjeiras, Laranjeiras",130 m²,3.0,3.0,1.0,R$ 3.401 /mês,condomínio R$ 1.060,IPTU R$ 280,-22.9323641,-43.1821872,Rua das Laranjeiras, Laranjeiras,3401,790.55
"Rua Oito de Dezembro, Maracanã",52 m²,1.0,2.0,1.0,R$ 1.100 /mês,condomínio R$ 500,IPTU R$ 25,-22.909991100000003,-43.2406283,Rua Oito de Dezembro, Maracanã,1100,255.69
"Rua Barata Ribeiro, Copacabana",82 m²,1.0,2.0,,R$ 2.500 /mês,condomínio R$ 688,IPTU R$ 241,-22.9654545,-43.18084520000001,Rua Barata Ribeiro, Copacabana,2500,581.12
"Estrada Governador Chagas Freitas, Ilha do Governador",64 m²,1.0,2.0,1.0,R$ 1.900 /mês,condomínio R$ 490,IPTU R$ 67,-22.8049732,-43.21986610772104,Estrada Governador Chagas Freitas, Ilha do Governador,1900,441.65
"Rua General Silva Pessoa, Tijuca",119 m²,2.0,3.0,2.0,R$ 2.300 /mês,condomínio R$ 990,IPTU R$ 180,-22.925340300000002,-43.2197594,Rua General Silva Pessoa, Tijuca,2300,534.63
"Rua Barão de Mesquita, Tijuca",90 m²,3.0,2.0,1.0,R$ 2.300 /mês,condomínio R$ 1.000,IPTU R$ 175,-22.924047,-43.236416600000005,Rua Barão de Mesquita, Tijuca,2300,534.63
"Rua Ituverava, Anil",60 m²,2.0,2.0,1.0,R$ 1.400 /mês,condomínio R$ 698,IPTU R$ 78,-22.9454515,-43.33619829999999,Rua Ituverava, Anil,1400,325.42
"Jacarepaguá, Rio de Janeiro",75 m²,2.0,3.0,2.0,R$ 2.500 /mês,condomínio R$ 640,IPTU R$ 120,-22.9665038,-43.371319299999996,Jacarepaguá, Rio de Janeiro,2500,581.12
"Rua Catulo Cearense, Engenho de Dentro",68 m²,2.0,2.0,,R$ 1.400 /mês,condomínio R$ 767,IPTU R$ 56,-22.9079117,-43.2974949,Rua Catulo Cearense, Engenho de Dentro,1400,325.42
"Estrada dos Bandeirantes, Jacarepaguá",58 m²,2.0,2.0,1.0,R$ 1.600 /mês,condomínio R$ 450,IPTU R$ 75,-22.9548472,-43.3765899,Estrada dos Bandeirantes, Jacarepaguá,1600,371.91
"Avenida Professor Manuel de Abreu, Maracanã",95 m²,2.0,2.0,1.0,R$ 1.700 /mês,condomínio R$ 841,IPTU R$ 151,-22.9144875,-43.2340037,Avenida Professor Manuel de Abreu, Maracanã,1700,395.16
"Rua Coronel Paulo Malta Rezende, Barra da Tijuca",64 m²,2.0,2.0,1.0,R$ 2.200 /mês,condomínio R$ 713,IPTU R$ 229,-23.004933800000003,-43.3312167,Rua Coronel Paulo Malta Rezende, Barra da Tijuca,2200,511.38
"Estrada dos Três Rios, Jacarepaguá",64 m²,1.0,2.0,1.0,R$ 1.600 /mês,condomínio R$ 600,IPTU R$ 76,-22.9258587,-43.3152522,Estrada dos Três Rios, Jacarepaguá,1600,371.91
"Jacarepaguá, Rio de Janeiro",73 m²,2.0,3.0,2.0,R$ 2.400 /mês,condomínio R$ 567,IPTU R$ 50,-22.9665038,-43.371319299999996,Jacarepaguá, Rio de Janeiro,2400,557.87
"Rua Coelho Neto, Laranjeiras",70 m²,2.0,2.0,1.0,R$ 2.600 /mês,condomínio R$ 709,IPTU R$ 109,-22.9358536,-43.1816344,Rua Coelho Neto, Laranjeiras,2600,604.36
"Estrada dos Três Rios, Jacarepaguá",61 m²,3.0,2.0,1.0,R$ 1.400 /mês,condomínio R$ 595,IPTU R$ 88,-22.9258587,-43.3152522,Estrada dos Três Rios, Jacarepaguá,1400,325.42
"Rua Pedro Bolato, Barra da Tijuca",70 m²,2.0,2.0,2.0,R$ 4.500 /mês,condomínio R$ 996,IPTU R$ 208,-23.0089194,-43.307098499999995,Rua Pedro Bolato, Barra da Tijuca,4500,1046.01
"Rua A Bagaceira, Jardim Guanabara",80 m²,2.0,2.0,1.0,R$ 1.900 /mês,condomínio R$ 670,IPTU R$ 100,-22.8132755,-43.2114737,Rua A Bagaceira, Jardim Guanabara,1900,441.65
"Avenida Antônio Gallotti, Jacarepaguá",78 m²,2.0,2.0,1.0,R$ 2.000 /mês,condomínio R$ 1.100,IPTU R$ 40,-22.9729927,-43.3674395,Avenida Antônio Gallotti, Jacarepaguá,2000,464.89
"Rua Venâncio Veloso, Recreio dos Bandeirantes",85 m²,3.0,3.0,2.0,R$ 1.700 /mês,condomínio R$ 708,IPTU R$ 182,-23.0177482,-43.4667998,Rua Venâncio Veloso, Recreio dos Bandeirantes,1700,395.16
"Rua Almirante Baltazar, São Cristóvão",66 m²,2.0,2.0,1.0,R$ 2.000 /mês,condomínio R$ 718,IPTU R$ 92,-22.9065343,-43.22061420000001,Rua Almirante Baltazar, São Cristóvão,2000,464.89
"Avenida Oswaldo Cruz, Flamengo",110 m²,4.0,2.0,1.0,R$ 3.700 /mês,condomínio R$ 750,IPTU R$ 322,-22.9393527,-43.1745967,Avenida Oswaldo Cruz, Flamengo,3700,860.05
"Rua Caçu, Taquara",60 m²,2.0,2.0,1.0,R$ 1.100 /mês,condomínio R$ 500,IPTU R$ 60,-22.9308143,-43.371767,Rua Caçu, Taquara,1100,255.69
"Estrada Meringuava, Taquara",60 m²,2.0,2.0,1.0,R$ 1.100 /mês,condomínio R$ 450,IPTU R$ 40,-22.91750395,-43.395577716649846,Estrada Meringuava, Taquara,1100,255.69
"Rua Florianópolis, Praça Seca",66 m²,3.0,2.0,1.0,R$ 900 /mês,condomínio R$ 650,IPTU R$ 50,-22.9014952,-43.3525042,Rua Florianópolis, Praça Seca,900,209.2
"Rua Morais e Silva, Maracanã",90 m²,3.0,2.0,1.0,R$ 2.200 /mês,condomínio R$ 1.000,IPTU R$ 115,-22.912447600000004,-43.2220924,Rua Morais e Silva, Maracanã,2200,511.38
"Rua Maria Amália, Tijuca",75 m²,3.0,2.0,1.0,R$ 2.050 /mês,condomínio R$ 760,IPTU R$ 65,-22.9275788,-43.24193629999999,Rua Maria Amália, Tijuca,2050,476.51
"Rua Pareto, Tijuca",85 m²,3.0,2.0,1.0,R$ 1.850 /mês,condomínio R$ 752,IPTU R$ 143,-22.922655,-43.2302143,Rua Pareto, Tijuca,1850,430.03
"Rua Fernão Cardim, Engenho de Dentro",47 m²,2.0,2.0,1.0,R$ 1.400 /mês,condomínio R$ 500,IPTU R$ 15,-22.8861097,-43.2879583,Rua Fernão Cardim, Engenho de Dentro,1400,325.42
"Rua Nossa Senhora de Lourdes, Grajaú",50 m²,2.0,2.0,1.0,R$ 1.400 /mês,condomínio R$ 525,IPTU R$ 54,-22.921267800000003,-43.255565399999995,Rua Nossa Senhora de Lourdes, Grajaú,1400,325.42
"Estrada Cachamorra, Campo Grande",57 m²,2.0,2.0,1.0,R$ 1.250 /mês,condomínio R$ 550,,-22.94624115,-43.557178065955135,Estrada Cachamorra, Campo Grande,1250,290.56
"Rua Mário Faustino, Recreio dos Bandeirantes",90 m²,3.0,3.0,2.0,R$ 1.800 /mês,condomínio R$ 730,IPTU R$ 219,-23.0188373,-43.4620261,Rua Mário Faustino, Recreio dos Bandeirantes,1800,418.4
"Rua Aristides Lobo, Rio Comprido",58 m²,2.0,2.0,,R$ 1.477 /mês,condomínio R$ 376,IPTU R$ 28,-22.924370800000002,-43.208937,Rua Aristides Lobo, Rio Comprido,1477,343.32
"Rua Baronesa, Praça Seca",110 m²,3.0,3.0,2.0,R$ 1.200 /mês,,,-22.8946047,-43.3549007,Rua Baronesa, Praça Seca,1200,278.94
"Estrada da Canoa, São Conrado",45 m²,2.0,1.0,1.0,R$ 1.600 /mês,condomínio R$ 555,,-22.9913592,-43.2675329,Estrada da Canoa, São Conrado,1600,371.91
"Pechincha, Rio de Janeiro",60 m²,1.0,2.0,1.0,R$ 1.100 /mês,condomínio R$ 480,IPTU R$ 84,-22.928988,-43.353419099999996,Pechincha, Rio de Janeiro,1100,255.69
"Avenida Epitácio Pessoa, Lagoa",380 m²,3.0,4.0,2.0,R$ 15.000 /mês,condomínio R$ 3.220,IPTU R$ 1.700,-22.9803652,-43.2139765,Avenida Epitácio Pessoa, Lagoa,15000,3486.69
"Rua Uruguai, Andaraí",70 m²,2.0,1.0,1.0,R$ 1.300 /mês,condomínio R$ 777,IPTU R$ 109,-22.9215236,-43.248205299999995,Rua Uruguai, Andaraí,1300,302.18
"Avenida Prefeito Dulcídio Cardoso, Barra da Tijuca",316 m²,6.0,3.0,4.0,R$ 22.000 /mês,condomínio R$ 9.000,IPTU R$ 2.300,-23.0048388,-43.366279799999994,Avenida Prefeito Dulcídio Cardoso, Barra da Tijuca,22000,5113.81
"Rua Ituverava, Freguesia de Jacarepaguá",154 m²,3.0,3.0,3.0,R$ 3.200 /mês,condomínio R$ 923,IPTU R$ 278,-22.9408899,-43.3422564,Rua Ituverava, Freguesia de Jacarepaguá,3200,743.83
"Avenida Prefeito Dulcídio Cardoso, Barra da Tijuca",278 m²,5.0,4.0,4.0,R$ 13.000 /mês,condomínio R$ 2.600,IPTU R$ 855,-23.0048388,-43.366279799999994,Avenida Prefeito Dulcídio Cardoso, Barra da Tijuca,13000,3021.8
"Rua Mário Ribeiro, Leblon",64 m²,1.0,2.0,1.0,R$ 2.300 /mês,condomínio R$ 677,IPTU R$ 211,-22.977750399999998,-43.222481,Rua Mário Ribeiro, Leblon,2300,534.63
"Rua Almirante Gomes Pereira, Urca",176 m²,3.0,4.0,1.0,R$ 9.000 /mês,condomínio R$ 3.100,IPTU R$ 658,-22.9434938,-43.1613911,Rua Almirante Gomes Pereira, Urca,9000,2092.01
"Rua Paulo César de Andrade, Laranjeiras",373 m²,4.0,4.0,2.0,R$ 8.000 /mês,condomínio R$ 2.644,IPTU R$ 781,-10.8040231,-37.1658336,Rua Paulo César de Andrade, Laranjeiras,8000,1859.57
"Rua Pompeu Loureiro, Copacabana",50 m²,,1.0,1.0,R$ 2.800 /mês,condomínio R$ 1.130,IPTU R$ 111,-22.975583899999997,-43.193523600000006,Rua Pompeu Loureiro, Copacabana,2800,650.85
"Rua Tirol, Jacarepaguá",48 m²,1.0,2.0,,R$ 950 /mês,condomínio R$ 300,,-22.939245899999996,-43.3212971,Rua Tirol, Jacarepaguá,950,220.82
"Avenida Bartolomeu Mitre, Leblon",88 m²,1.0,2.0,1.0,R$ 3.100 /mês,condomínio R$ 1.450,IPTU R$ 318,-22.9777288,-43.224804999999996,Avenida Bartolomeu Mitre, Leblon,3100,720.58
"Rua Engenheiro Enaldo Cravo Peixoto, Tijuca",70 m²,1.0,2.0,1.0,R$ 2.900 /mês,condomínio R$ 896,IPTU R$ 176,-22.9219495,-43.2345965,Rua Engenheiro Enaldo Cravo Peixoto, Tijuca,2900,674.09
"Avenida Atlântica, Copacabana",70 m²,1.0,1.0,,R$ 3.000 /mês,condomínio R$ 1.070,IPTU R$ 326,-22.9766415,-43.188297,Avenida Atlântica, Copacabana,3000,697.34
"Avenida Júlio Furtado, Grajau",80 m²,1.0,2.0,,R$ 1.550 /mês,condomínio R$ 450,,-22.9233439,-43.2640862,Avenida Júlio Furtado, Grajau,1550,360.29
"Rua Honório, Todos os Santos",89 m²,2.0,2.0,1.0,R$ 1.500 /mês,condomínio R$ 760,IPTU R$ 80,-22.8917275,-43.2826428,Rua Honório, Todos os Santos,1500,348.67
"Rua Ministro Viveiros de Castro, Copacabana",100 m²,2.0,3.0,,R$ 2.200 /mês,condomínio R$ 1.250,IPTU R$ 264,-22.9642979,-43.1771955,Rua Ministro Viveiros de Castro, Copacabana,2200,511.38
"Santa Teresa, Rio de Janeiro",40 m²,1.0,2.0,1.0,R$ 1.200 /mês,condomínio R$ 545,IPTU R$ 118,-22.9319478,-43.1969954,Santa Teresa, Rio de Janeiro,1200,278.94
"Avenida Geremário Dantas, Pechincha",55 m²,1.0,2.0,1.0,R$ 1.300 /mês,condomínio R$ 395,IPTU R$ 51,-22.9248493,-43.3596031,Avenida Geremário Dantas, Pechincha,1300,302.18
"Avenida Lúcio Costa, Barra da Tijuca",125 m²,2.0,3.0,,R$ 4.800 /mês,condomínio R$ 1.698,IPTU R$ 464,-23.014923800000002,-43.407209,Avenida Lúcio Costa, Barra da Tijuca,4800,1115.74
"Estrada Meringuava, Taquara",61 m²,1.0,2.0,1.0,R$ 800 /mês,condomínio R$ 550,IPTU R$ 54,-22.91750395,-43.395577716649846,Estrada Meringuava, Taquara,800,185.96
"Avenida Atlântica, Copacabana",200 m²,,3.0,1.0,R$ 7.000 /mês,condomínio R$ 1.800,IPTU R$ 998,-22.9766415,-43.188297,Avenida Atlântica, Copacabana,7000,1627.12
"Rua Elmano Cardim, Urca",200 m²,,4.0,2.0,R$ 8.000 /mês,condomínio R$ 2.800,IPTU R$ 544,-22.953218300000003,-43.1695399,Rua Elmano Cardim, Urca,8000,1859.57
"Rua Vaz de Toledo, Engenho Novo",70 m²,1.0,3.0,,R$ 850 /mês,condomínio R$ 530,IPTU R$ 30,-22.898572100000003,-43.2689279,Rua Vaz de Toledo, Engenho Novo,850,197.58
"Estrada do Engenho D'Agua, Anil",55 m²,2.0,2.0,1.0,R$ 1.100 /mês,condomínio R$ 486,IPTU R$ 65,-22.957320899999996,-43.3434716,Estrada do Engenho D'Agua, Anil,1100,255.69
"Rua São Francisco Xavier, Maracanã",85 m²,3.0,3.0,1.0,R$ 1.890 /mês,condomínio R$ 789,IPTU R$ 105,-22.915698100000004,-43.2319433,Rua São Francisco Xavier, Maracanã,1890,439.32
"Avenida Atlântica, Copacabana",250 m²,1.0,3.0,1.0,R$ 7.900 /mês,condomínio R$ 1.814,IPTU R$ 954,-22.9766415,-43.188297,Avenida Atlântica, Copacabana,7900,1836.32
"Rua Riachuelo, Centro",22 m²,1.0,1.0,,R$ 780 /mês,condomínio R$ 446,IPTU R$ 26,-30.0342118,-51.2393593,Rua Riachuelo, Centro,780,181.31
"Rua Sá Ferreira, Copacabana",110 m²,1.0,3.0,1.0,R$ 1.500 /mês,condomínio R$ 1.415,IPTU R$ 199,-22.980819399999998,-43.1910909,Rua Sá Ferreira, Copacabana,1500,348.67
"Rua do Cipreste, Curicica",58 m²,1.0,2.0,1.0,R$ 1.200 /mês,condomínio R$ 150,IPTU R$ 53,-22.9519909,-43.3872901,Rua do Cipreste, Curicica,1200,278.94
"Rua Fonte da Saudade, Lagoa",70 m²,2.0,1.0,1.0,R$ 2.500 /mês,condomínio R$ 1.325,IPTU R$ 326,-22.9607745,-43.2028991,Rua Fonte da Saudade, Lagoa,2500,581.12
"Avenida Lúcio Costa, Barra da Tijuca",291 m²,,4.0,3.0,R$ 10.000 /mês,condomínio R$ 5.000,IPTU R$ 1.920,-23.014923800000002,-43.407209,Avenida Lúcio Costa, Barra da Tijuca,10000,2324.46
"Avenida Paulo de Frontin, Praca da Bandeira",135 m²,2.0,3.0,,R$ 2.000 /mês,condomínio R$ 150,IPTU R$ 36,-22.91525,-43.2102423,Avenida Paulo de Frontin, Praca da Bandeira,2000,464.89
"Rua Canning, Ipanema",90 m²,2.0,2.0,1.0,R$ 8.000 /mês,condomínio R$ 1.600,IPTU R$ 524,-22.9848957,-43.1952136,Rua Canning, Ipanema,8000,1859.57
"Avenida Lúcio Costa, Barra da Tijuca",150 m²,,4.0,2.0,R$ 8.500 /mês,condomínio R$ 2.000,IPTU R$ 730,-23.014923800000002,-43.407209,Avenida Lúcio Costa, Barra da Tijuca,8500,1975.79
"Rua Pinheiro Machado, Laranjeiras",98 m²,2.0,2.0,,R$ 1.900 /mês,condomínio R$ 1.057,IPTU R$ 170,-22.939630899999997,-43.182965,Rua Pinheiro Machado, Laranjeiras,1900,441.65
"Rua Cardoso Quintão, Piedade",50 m²,1.0,2.0,,R$ 700 /mês,condomínio R$ 275,,-22.8735279,-43.308445500000005,Rua Cardoso Quintão, Piedade,700,162.71
"Avenida Tenente-Coronel Muniz de Aragão, Anil",72 m²,2.0,3.0,1.0,R$ 1.500 /mês,condomínio R$ 850,IPTU R$ 770,-22.948937,-43.3408375,Avenida Tenente-Coronel Muniz de Aragão, Anil,1500,348.67
"Tijuca, Rio de Janeiro",70 m²,2.0,2.0,,R$ 1.500 /mês,condomínio R$ 250,IPTU R$ 50,-22.9332164,-43.2381453,Tijuca, Rio de Janeiro,1500,348.67
"Praia do Flamengo, Flamengo",269 m²,2.0,3.0,1.0,R$ 10.900 /mês,condomínio R$ 1.650,IPTU R$ 900,-22.9282465,-43.17079041917478,Praia do Flamengo, Flamengo,10900,2533.66
"Estrada dos Bandeirantes, Taquara",51 m²,1.0,2.0,1.0,R$ 1.850 /mês,condomínio R$ 450,IPTU R$ 100,-22.9243928,-43.373984899999996,Estrada dos Bandeirantes, Taquara,1850,430.03
"Copacabana, Rio de Janeiro",50 m²,1.0,1.0,1.0,R$ 2.500 /mês,condomínio R$ 1.500,IPTU R$ 300,-22.9719642,-43.1843432,Copacabana, Rio de Janeiro,2500,581.12
"Rua Geminiano Gois, Freguesia (Jacarepaguá)",70 m²,1.0,2.0,1.0,R$ 1.300 /mês,condomínio R$ 572,IPTU R$ 76,-22.937072600000004,-43.3354416,Rua Geminiano Gois, Freguesia (Jacarepaguá),1300,302.18
"Avenida Delfim Moreira, Leblon",400 m²,,4.0,4.0,R$ 40.000 /mês,condomínio R$ 4.809,IPTU R$ 4.166,-22.98679,-43.2200859,Avenida Delfim Moreira, Leblon,40000,9297.84
"Rua Arquias Cordeiro, Engenho Novo",50 m²,1.0,2.0,,R$ 800 /mês,IPTU R$ 11,,-22.9039197,-43.2733079,Rua Arquias Cordeiro, Engenho Novo,800,185.96
"Praia do Flamengo, Flamengo",545 m²,7.0,4.0,4.0,R$ 15.000 /mês,condomínio R$ 4.300,IPTU R$ 1.901,-22.9282465,-43.17079041917478,Praia do Flamengo, Flamengo,15000,3486.69
"Rua Figueiredo Magalhães, Copacabana",76 m²,2.0,2.0,1.0,R$ 2.350 /mês,condomínio R$ 891,IPTU R$ 203,-22.9674748,-43.187453600000005,Rua Figueiredo Magalhães, Copacabana,2350,546.25
"Avenida São Sebastião, Urca",65 m²,1.0,2.0,,R$ 3.100 /mês,condomínio R$ 629,IPTU R$ 162,-22.946658600000003,-43.161134600000004,Avenida São Sebastião, Urca,3100,720.58
"Ipanema, Rio de Janeiro",214 m²,2.0,3.0,3.0,R$ 12.000 /mês,condomínio R$ 3.575,IPTU R$ 1.231,-22.9839557,-43.202216299999996,Ipanema, Rio de Janeiro,12000,2789.35
"Rua Basílio de Brito, Cachambi",60 m²,1.0,2.0,,R$ 1.375 /mês,,,-22.8887124,-43.268156299999994,Rua Basílio de Brito, Cachambi,1375,319.61
"Estrada do Rio Grande, Taquara",60 m²,2.0,2.0,1.0,R$ 1.300 /mês,condomínio R$ 370,IPTU R$ 90,-22.9183909,-43.3971464,Estrada do Rio Grande, Taquara,1300,302.18
"Estrada Coronel Vieira, Irajá",53 m²,1.0,2.0,1.0,R$ 1.100 /mês,condomínio R$ 549,,-22.8508744,-43.317637100000006,Estrada Coronel Vieira, Irajá,1100,255.69
"Rua Retiro dos Artistas, Pechincha",60 m²,1.0,2.0,2.0,R$ 870 /mês,condomínio R$ 470,IPTU R$ 46,-22.930480300000003,-43.3555556,Rua Retiro dos Artistas, Pechincha,870,202.23
"Rua São Clemente, Botafogo",76 m²,2.0,3.0,2.0,R$ 3.997 /mês,condomínio R$ 1.081,IPTU R$ 260,-22.9500463,-43.191054799999996,Rua São Clemente, Botafogo,3997,929.09
"Rua Cândido Gaffree, Urca",70 m²,3.0,2.0,1.0,R$ 3.300 /mês,condomínio R$ 566,IPTU R$ 205,-22.944898100000003,-43.1608852,Rua Cândido Gaffree, Urca,3300,767.07
"Avenida Oswaldo Cruz, Flamengo",147 m²,3.0,3.0,1.0,R$ 4.600 /mês,condomínio R$ 1.732,IPTU R$ 350,-22.9393527,-43.1745967,Avenida Oswaldo Cruz, Flamengo,4600,1069.25
"Rua Washington Luís, Centro",42 m²,1.0,1.0,,R$ 1.000 /mês,condomínio R$ 590,IPTU R$ 130,-22.5144471,-43.1816234,Rua Washington Luís, Centro,1000,232.45
"Avenida Dom Hélder Câmara, Quintino Bocaiuva",66 m²,1.0,2.0,1.0,R$ 1.200 /mês,condomínio R$ 435,,-22.8831743,-43.320918,Avenida Dom Hélder Câmara, Quintino Bocaiuva,1200,278.94
"Rua Viana Drumond, Vila Isabel",85 m²,2.0,2.0,1.0,R$ 1.400 /mês,condomínio R$ 1.000,IPTU R$ 90,-22.9201766,-43.2558029,Rua Viana Drumond, Vila Isabel,1400,325.42
"Rua Serrão, Ribeira",40 m²,1.0,2.0,,R$ 1.100 /mês,IPTU R$ 32,,-22.8223955,-43.17498,Rua Serrão, Ribeira,1100,255.69
"Avenida Treze de Maio, Centro",30 m²,1.0,1.0,,R$ 1.500 /mês,condomínio R$ 800,,-8.8897464,-36.4941119,Avenida Treze de Maio, Centro,1500,348.67
"Rua Caiapó, Engenho Novo",77 m²,1.0,3.0,1.0,R$ 950 /mês,condomínio R$ 690,IPTU R$ 48,-22.9099206,-43.2739525,Rua Caiapó, Engenho Novo,950,220.82
"Rua Prudente de Morais, Ipanema",163 m²,,3.0,1.0,R$ 3.800 /mês,condomínio R$ 2.300,,-22.9855992,-43.1969718,Rua Prudente de Morais, Ipanema,3800,883.29
"Travessa Chafi Chaia, Campo Grande",40 m²,1.0,1.0,1.0,R$ 1.400 /mês,condomínio R$ 390,,-20.4640173,-54.6162947,Travessa Chafi Chaia, Campo Grande,1400,325.42
"Rua do Humaitá, Humaitá",65 m²,2.0,1.0,1.0,R$ 3.000 /mês,condomínio R$ 924,IPTU R$ 160,-27.5660564,-53.9719817,Rua do Humaitá, Humaitá,3000,697.34
"Rua Roberto Dias Lópes, Leme",80 m²,3.0,2.0,1.0,R$ 3.500 /mês,condomínio R$ 1.100,IPTU R$ 250,-22.962171899999998,-43.1737305,Rua Roberto Dias Lópes, Leme,3500,813.56
"Rua Redentor, Ipanema",200 m²,,3.0,2.0,R$ 11.500 /mês,condomínio R$ 1.900,IPTU R$ 990,-22.9821776,-43.2133851,Rua Redentor, Ipanema,11500,2673.13
"Avenida das Américas, Recreio dos Bandeirantes",65 m²,2.0,2.0,1.0,R$ 1.200 /mês,condomínio R$ 962,IPTU R$ 137,-23.0063466,-43.4358159,Avenida das Américas, Recreio dos Bandeirantes,1200,278.94
"Avenida Cesário de Melo, Campo Grande",49 m²,1.0,2.0,1.0,R$ 700 /mês,condomínio R$ 430,,-22.8973512,-43.5483958,Avenida Cesário de Melo, Campo Grande,700,162.71
"Rua Alberto de Campos, Ipanema",90 m²,2.0,3.0,1.0,R$ 5.500 /mês,condomínio R$ 850,IPTU R$ 275,-22.981271300000003,-43.2004164,Rua Alberto de Campos, Ipanema,5500,1278.45
"Rua Jorge Yunes, Recreio dos Bandeirantes",176 m²,3.0,3.0,2.0,R$ 2.700 /mês,condomínio R$ 1.030,IPTU R$ 378,-23.020309100000002,-43.453873,Rua Jorge Yunes, Recreio dos Bandeirantes,2700,627.6
"Rua Professor Gabizo, Maracanã",52 m²,1.0,1.0,1.0,R$ 1.400 /mês,condomínio R$ 450,IPTU R$ 69,-22.9163901,-43.2221112,Rua Professor Gabizo, Maracanã,1400,325.42
"Rua Voluntários da Pátria, Botafogo",80 m²,3.0,2.0,1.0,R$ 2.100 /mês,condomínio R$ 700,IPTU R$ 120,-22.9513701,-43.1842679,Rua Voluntários da Pátria, Botafogo,2100,488.14
"Rua Barra Bonita, Jacarepaguá",58 m²,2.0,2.0,1.0,R$ 1.200 /mês,condomínio R$ 690,IPTU R$ 150,-22.963252,-43.39719960000001,Rua Barra Bonita, Jacarepaguá,1200,278.94
"Avenida Oliveira Belo, Vila da Penha",70 m²,2.0,3.0,1.0,R$ 1.900 /mês,condomínio R$ 620,IPTU R$ 759,-22.8435065,-43.3100585,Avenida Oliveira Belo, Vila da Penha,1900,441.65
"Avenida Pastor Martin Luther King Jr, Vicente de Carvalho",45 m²,1.0,2.0,1.0,R$ 1.200 /mês,condomínio R$ 392,,-22.8529785,-43.314350399999995,Avenida Pastor Martin Luther King Jr, Vicente de Carvalho,1200,278.94
"Rua Joaquim Pinheiro, Freguesia (Jacarepaguá)",72 m²,2.0,2.0,1.0,R$ 1.200 /mês,condomínio R$ 740,IPTU R$ 81,-22.9333806,-43.3347821,Rua Joaquim Pinheiro, Freguesia (Jacarepaguá),1200,278.94
"Rua Riachuelo, Centro",50 m²,1.0,1.0,1.0,R$ 2.400 /mês,condomínio R$ 600,IPTU R$ 105,-30.0342118,-51.2393593,Rua Riachuelo, Centro,2400,557.87
"Rua São Francisco Xavier, Maracanã",80 m²,1.0,2.0,1.0,R$ 1.400 /mês,condomínio R$ 605,IPTU R$ 100,-22.915698100000004,-43.2319433,Rua São Francisco Xavier, Maracanã,1400,325.42
"Rua Aristides Lobo, Rio Comprido",50 m²,2.0,2.0,1.0,R$ 1.550 /mês,condomínio R$ 550,IPTU R$ 42,-22.924370800000002,-43.208937,Rua Aristides Lobo, Rio Comprido,1550,360.29
"Rua João Barros Moreira, Recreio dos Bandeirantes",90 m²,2.0,2.0,2.0,R$ 1.700 /mês,condomínio R$ 469,IPTU R$ 183,-23.0197394,-43.4600439,Rua João Barros Moreira, Recreio dos Bandeirantes,1700,395.16
"Avenida Embaixador Abelardo Bueno, Barra da Tijuca",70 m²,2.0,2.0,1.0,R$ 2.000 /mês,condomínio R$ 900,IPTU R$ 130,-22.9732812,-43.379219299999995,Avenida Embaixador Abelardo Bueno, Barra da Tijuca,2000,464.89
"Rua Barra Bonita, Jacarepaguá",58 m²,2.0,2.0,1.0,R$ 1.200 /mês,condomínio R$ 550,IPTU R$ 900,-22.963252,-43.39719960000001,Rua Barra Bonita, Jacarepaguá,1200,278.94
"Rua Ituverava, Freguesia de Jacarepaguá",77 m²,3.0,3.0,2.0,R$ 2.100 /mês,condomínio R$ 618,IPTU R$ 138,-22.9408899,-43.3422564,Rua Ituverava, Freguesia de Jacarepaguá,2100,488.14
"Rua Pereira Nunes, Tijuca",55 m²,3.0,2.0,,R$ 2.000 /mês,condomínio R$ 240,IPTU R$ 65,-22.9205272,-43.2382218,Rua Pereira Nunes, Tijuca,2000,464.89
"Rua Teodoro da Silva, Vila Isabel",115 m²,3.0,3.0,1.0,R$ 2.300 /mês,condomínio R$ 366,IPTU R$ 151,-22.917662399999998,-43.245957700000005,Rua Teodoro da Silva, Vila Isabel,2300,534.63
"Rua Professor Nehemias Gueiros, Recreio dos Bandeirantes",75 m²,3.0,2.0,2.0,R$ 1.700 /mês,condomínio R$ 847,IPTU R$ 160,-23.017635000000002,-43.453629,Rua Professor Nehemias Gueiros, Recreio dos Bandeirantes,1700,395.16
"Avenida Meriti, Parada de Lucas",47 m²,1.0,2.0,1.0,R$ 1.110 /mês,condomínio R$ 238,IPTU R$ 45,-22.826610600000002,-43.3112119,Avenida Meriti, Parada de Lucas,1110,258.02
"Rua Jornalista Henrique Cordeiro, Barra da Tijuca",100 m²,2.0,3.0,2.0,R$ 5.000 /mês,condomínio R$ 1.000,IPTU R$ 230,-23.004016800000002,-43.3247702,Rua Jornalista Henrique Cordeiro, Barra da Tijuca,5000,1162.23
"Avenida Maracanã, Maracanã",89 m²,2.0,2.0,1.0,R$ 1.800 /mês,condomínio R$ 650,IPTU R$ 110,-22.912032,-43.226347,Avenida Maracanã, Maracanã,1800,418.4
"Rua Frei Leandro, Lagoa",77 m²,3.0,2.0,1.0,R$ 3.800 /mês,condomínio R$ 823,IPTU R$ 230,-22.9628006,-43.2070138,Rua Frei Leandro, Lagoa,3800,883.29
"Rua Professor Hermes Lima, Recreio dos Bandeirantes",118 m²,3.0,3.0,2.0,R$ 2.000 /mês,condomínio R$ 840,IPTU R$ 261,-23.0217033,-43.4559279,Rua Professor Hermes Lima, Recreio dos Bandeirantes,2000,464.89
"Estrada Rodrigues Caldas, Taquara",55 m²,1.0,2.0,1.0,R$ 1.300 /mês,condomínio R$ 380,IPTU R$ 50,-22.9301996,-43.3938251,Estrada Rodrigues Caldas, Taquara,1300,302.18
"Rua Barão de Mesquita, Tijuca",83 m²,1.0,2.0,1.0,R$ 3.000 /mês,condomínio R$ 745,IPTU R$ 228,-22.924047,-43.236416600000005,Rua Barão de Mesquita, Tijuca,3000,697.34
"Estrada dos Bandeirantes, Jacarepaguá",57 m²,2.0,2.0,,R$ 1.300 /mês,condomínio R$ 585,IPTU R$ 102,-22.9548472,-43.3765899,Estrada dos Bandeirantes, Jacarepaguá,1300,302.18
"Rua Eulina Ribeiro, Engenho de Dentro",63 m²,2.0,3.0,1.0,R$ 1.000 /mês,condomínio R$ 594,,-22.9070087,-43.301831400000005,Rua Eulina Ribeiro, Engenho de Dentro,1000,232.45
"Rua Lins de Vasconcelos, Lins de Vasconcelos",65 m²,1.0,2.0,1.0,R$ 800 /mês,condomínio R$ 450,IPTU R$ 64,-22.9074238,-43.2770935,Rua Lins de Vasconcelos, Lins de Vasconcelos,800,185.96
"Rua Cabuçu, Lins de Vasconcelos",80 m²,1.0,2.0,,R$ 1.200 /mês,condomínio R$ 350,IPTU R$ 42,-22.909681399999997,-43.275863,Rua Cabuçu, Lins de Vasconcelos,1200,278.94
"Avenida Belisário Leite de Andrade Neto, Barra da Tijuca",159 m²,4.0,3.0,2.0,R$ 3.100 /mês,condomínio R$ 1.267,IPTU R$ 508,-23.0134205,-43.3075028,Avenida Belisário Leite de Andrade Neto, Barra da Tijuca,3100,720.58
"Rua Ituverava, Freguesia de Jacarepaguá",65 m²,3.0,2.0,1.0,R$ 2.100 /mês,condomínio R$ 572,IPTU R$ 71,-22.9408899,-43.3422564,Rua Ituverava, Freguesia de Jacarepaguá,2100,488.14
"Rua Ituverava, Freguesia de Jacarepaguá",65 m²,3.0,2.0,1.0,R$ 2.100 /mês,condomínio R$ 564,IPTU R$ 71,-22.9408899,-43.3422564,Rua Ituverava, Freguesia de Jacarepaguá,2100,488.14
"Praia do Jequiá, Zumbi",70 m²,2.0,2.0,1.0,R$ 2.100 /mês,condomínio R$ 500,IPTU R$ 167,-22.824164399999997,-43.1736703,Praia do Jequiá, Zumbi,2100,488.14
"Rua Ituverava, Anil",60 m²,1.0,2.0,1.0,R$ 1.400 /mês,condomínio R$ 443,IPTU R$ 61,-22.9454515,-43.33619829999999,Rua Ituverava, Anil,1400,325.42
"Rua Antônio Parreiras, Ipanema",97 m²,2.0,3.0,1.0,R$ 3.000 /mês,condomínio R$ 1.265,IPTU R$ 246,-22.9838087,-43.1952591,Rua Antônio Parreiras, Ipanema,3000,697.34
"Rua Retiro dos Artistas, Pechincha",90 m²,2.0,3.0,1.0,R$ 2.000 /mês,condomínio R$ 750,IPTU R$ 149,-22.930480300000003,-43.3555556,Rua Retiro dos Artistas, Pechincha,2000,464.89
"Rua General Garzon, Lagoa",120 m²,3.0,3.0,1.0,R$ 4.800 /mês,condomínio R$ 1.642,,-22.9670372,-43.2180521,Rua General Garzon, Lagoa,4800,1115.74
"Rua Francisco de Paula, Jacarepaguá",69 m²,1.0,2.0,1.0,R$ 1.650 /mês,condomínio R$ 820,IPTU R$ 130,-22.970773,-43.3975035,Rua Francisco de Paula, Jacarepaguá,1650,383.54
"Avenida Genaro de Carvalho, Recreio dos Bandeirantes",88 m²,3.0,3.0,2.0,R$ 1.750 /mês,condomínio R$ 638,IPTU R$ 2.206,-23.014309,-43.450272600000005,Avenida Genaro de Carvalho, Recreio dos Bandeirantes,1750,406.78
"Travessa Chafi Chaia, Campo Grande",40 m²,1.0,1.0,,R$ 1.400 /mês,condomínio R$ 390,,-20.4640173,-54.6162947,Travessa Chafi Chaia, Campo Grande,1400,325.42
"Rua da Matriz, Botafogo",250 m²,5.0,5.0,4.0,R$ 10.000 /mês,condomínio R$ 2.800,IPTU R$ 829,-22.9506298,-43.192821,Rua da Matriz, Botafogo,10000,2324.46
"Rua Cupertino Durão, Leblon",152 m²,,1.0,2.0,R$ 12.000 /mês,condomínio R$ 2.508,IPTU R$ 860,-22.983556,-43.2249377,Rua Cupertino Durão, Leblon,12000,2789.35
"Rua do Matoso, Tijuca",36 m²,1.0,1.0,,R$ 1.300 /mês,condomínio R$ 380,IPTU R$ 24,-22.9332164,-43.2381453,Rua do Matoso, Tijuca,1300,302.18
"Rua Zeferino de Faria, Recreio dos Bandeirantes",81 m²,3.0,3.0,1.0,R$ 2.200 /mês,condomínio R$ 700,IPTU R$ 133,-23.015578899999998,-43.4480826,Rua Zeferino de Faria, Recreio dos Bandeirantes,2200,511.38
"Rua do Catete, Catete",30 m²,1.0,1.0,,R$ 1.250 /mês,condomínio R$ 450,IPTU R$ 50,-22.9248707,-43.1767511,Rua do Catete, Catete,1250,290.56
"Rua Mapendi, Taquara",70 m²,2.0,2.0,1.0,R$ 1.150 /mês,condomínio R$ 535,IPTU R$ 72,-22.9294089,-43.3756395,Rua Mapendi, Taquara,1150,267.31
"Rua Artur Araripe, Gávea",107 m²,,3.0,1.0,R$ 3.900 /mês,condomínio R$ 1.142,IPTU R$ 255,-22.9814243,-43.2383245,Rua Artur Araripe, Gávea,3900,906.54
"Avenida Bruxelas, Bonsucesso",60 m²,,2.0,,R$ 900 /mês,condomínio R$ 110,IPTU R$ 39,-22.865189899999997,-43.2527453,Avenida Bruxelas, Bonsucesso,900,209.2
"Avenida Lúcio Costa, Barra da Tijuca",170 m²,3.0,4.0,2.0,R$ 6.500 /mês,condomínio R$ 2.780,IPTU R$ 868,-23.014923800000002,-43.407209,Avenida Lúcio Costa, Barra da Tijuca,6500,1510.9
"Rua Cirne Maia, Cachambi",70 m²,1.0,2.0,1.0,R$ 1.000 /mês,condomínio R$ 891,IPTU R$ 52,-22.8919912,-43.279608200000006,Rua Cirne Maia, Cachambi,1000,232.45
"Rua Belfort Roxo, Copacabana",50 m²,1.0,1.0,,R$ 1.700 /mês,condomínio R$ 635,IPTU R$ 113,-22.962703899999998,-43.1767378,Rua Belfort Roxo, Copacabana,1700,395.16
"Estrada Pau-ferro, Pechincha",65 m²,2.0,2.0,1.0,R$ 1.190 /mês,condomínio R$ 719,IPTU R$ 130,-22.928988,-43.3534191,Estrada Pau-ferro, Pechincha,1190,276.61
"Estrada do Engenho Velho, Taquara",50 m²,1.0,1.0,,R$ 900 /mês,condomínio R$ 120,,-22.9146714,-43.3938806,Estrada do Engenho Velho, Taquara,900,209.2
"Avenida Delfim Moreira, Leblon",160 m²,3.0,3.0,2.0,R$ 7.000 /mês,condomínio R$ 3.440,IPTU R$ 990,-22.98679,-43.2200859,Avenida Delfim Moreira, Leblon,7000,1627.12
"Rua Almirante Tamandaré, Catete",60 m²,1.0,1.0,,R$ 2.600 /mês,condomínio R$ 550,IPTU R$ 80,-22.9322135,-43.177597799999994,Rua Almirante Tamandaré, Catete,2600,604.36
"Avenida Adolpho de Vasconcelos, Barra da Tijuca",58 m²,,2.0,,R$ 1.100 /mês,condomínio R$ 756,IPTU R$ 118,-22.9997404,-43.3659929,Avenida Adolpho de Vasconcelos, Barra da Tijuca,1100,255.69
"Rua Tirol, Freguesia (Jacarepaguá)",90 m²,2.0,2.0,1.0,R$ 1.300 /mês,condomínio R$ 630,IPTU R$ 98,-22.9396582,-43.3369363,Rua Tirol, Freguesia (Jacarepaguá),1300,302.18
"Rua Professor Gabizo, Maracanã",75 m²,2.0,2.0,,R$ 2.200 /mês,condomínio R$ 670,IPTU R$ 59,-22.9163901,-43.2221112,Rua Professor Gabizo, Maracanã,2200,511.38
"Rua Bolivar, Copacabana",80 m²,1.0,2.0,,R$ 2.000 /mês,condomínio R$ 1.130,IPTU R$ 243,-22.975793300000003,-43.1912304,Rua Bolivar, Copacabana,2000,464.89
"Rua Vinte e Quatro de Maio, Rocha",56 m²,1.0,2.0,1.0,R$ 960 /mês,condomínio R$ 825,IPTU R$ 17,-22.902391199999997,-43.258096,Rua Vinte e Quatro de Maio, Rocha,960,223.15
"Rua Carlos de Vasconcelos, Tijuca",45 m²,1.0,1.0,1.0,R$ 1.800 /mês,condomínio R$ 510,IPTU R$ 65,-22.925157100000003,-43.230067600000005,Rua Carlos de Vasconcelos, Tijuca,1800,418.4
"Avenida Professor Fausto Moreira, Barra da Tijuca",60 m²,1.0,2.0,1.0,R$ 1.250 /mês,condomínio R$ 776,IPTU R$ 115,-23.005536,-43.428404,Avenida Professor Fausto Moreira, Barra da Tijuca,1250,290.56
"Avenida Maracanã, Tijuca",78 m²,2.0,2.0,1.0,R$ 1.600 /mês,condomínio R$ 850,IPTU R$ 90,-22.9315642,-43.2425412,Avenida Maracanã, Tijuca,1600,371.91
"Rua Silvia Pozzano, Recreio dos Bandeirantes",171 m²,,4.0,3.0,R$ 2.650 /mês,condomínio R$ 1.223,IPTU R$ 414,-23.0066417,-43.4845412,Rua Silvia Pozzano, Recreio dos Bandeirantes,2650,615.98
"Avenida Lúcio Costa, Barra da Tijuca",664 m²,,5.0,6.0,R$ 19.000 /mês,condomínio R$ 5.700,IPTU R$ 45.000,-23.014923800000002,-43.407209,Avenida Lúcio Costa, Barra da Tijuca,19000,4416.47
"Rua das Laranjeiras, Laranjeiras",73 m²,2.0,2.0,1.0,R$ 2.600 /mês,condomínio R$ 1.020,IPTU R$ 210,-22.9323641,-43.1821872,Rua das Laranjeiras, Laranjeiras,2600,604.36
"Rua Cruz e Sousa, Encantado",40 m²,1.0,1.0,,R$ 650 /mês,,,-22.8966961,-43.3055126,Rua Cruz e Sousa, Encantado,650,151.09
"Avenida Vieira Souto, Ipanema",340 m²,1.0,3.0,2.0,R$ 22.000 /mês,condomínio R$ 5.500,IPTU R$ 2.600,-22.9862375,-43.209178200000004,Avenida Vieira Souto, Ipanema,22000,5113.81
"Avenida Visconde de Albuquerque, Leblon",220 m²,3.0,3.0,3.0,R$ 19.900 /mês,condomínio R$ 3.750,IPTU R$ 1.300,-22.9877577,-43.2286995,Avenida Visconde de Albuquerque, Leblon,19900,4625.68
"Rua Barão da Torre, Ipanema",90 m²,2.0,3.0,1.0,R$ 3.300 /mês,condomínio R$ 850,IPTU R$ 177,-22.983158399999997,-43.2050161,Rua Barão da Torre, Ipanema,3300,767.07
"São Conrado, Rio de Janeiro",55 m²,1.0,1.0,1.0,R$ 2.989 /mês,condomínio R$ 690,IPTU R$ 230,-22.9913592,-43.2675329,São Conrado, Rio de Janeiro,2989,694.78
"Rua Capitão Jesus, Cachambi",70 m²,1.0,3.0,,R$ 900 /mês,condomínio R$ 250,IPTU R$ 30,-22.8936484,-43.2761179,Rua Capitão Jesus, Cachambi,900,209.2
"Rua Manuel Vieira, Tanque",70 m²,1.0,2.0,1.0,R$ 1.000 /mês,condomínio R$ 400,IPTU R$ 17,-22.9149224,-43.3681271,Rua Manuel Vieira, Tanque,1000,232.45
"Rua Violeta, Água Santa",50 m²,1.0,2.0,1.0,R$ 800 /mês,condomínio R$ 310,IPTU R$ 17,-22.9058008,-43.310105799999995,Rua Violeta, Água Santa,800,185.96
"Rua Leopoldo Miguez, Copacabana",125 m²,2.0,3.0,1.0,R$ 4.500 /mês,condomínio R$ 1.600,IPTU R$ 320,-22.975793300000003,-43.1912304,Rua Leopoldo Miguez, Copacabana,4500,1046.01
"Rua Iliria, Penha Circular",54 m²,1.0,2.0,,R$ 1.100 /mês,condomínio R$ 310,IPTU R$ 10,-22.844502600000002,-43.299915999999996,Rua Iliria, Penha Circular,1100,255.69
"Rua Gomes Carneiro, Ipanema",130 m²,3.0,3.0,1.0,R$ 2.500 /mês,condomínio R$ 1.131,IPTU R$ 566,-22.9857245,-43.196504100000006,Rua Gomes Carneiro, Ipanema,2500,581.12
"Rua Anita Garibaldi, Copacabana",82 m²,2.0,2.0,1.0,R$ 3.500 /mês,condomínio R$ 989,IPTU R$ 251,-22.9685405,-43.18852639999999,Rua Anita Garibaldi, Copacabana,3500,813.56
"Rua Professor Alberto Meyer, Pitangueiras",40 m²,1.0,1.0,,R$ 1.000 /mês,condomínio R$ 50,IPTU R$ 59,-22.817306600000002,-43.1782974,Rua Professor Alberto Meyer, Pitangueiras,1000,232.45
"Avenida Henrique Dodsworth, Lagoa",135 m²,3.0,3.0,3.0,R$ 4.900 /mês,condomínio R$ 1.800,IPTU R$ 383,-22.9767729,-43.1973679,Avenida Henrique Dodsworth, Lagoa,4900,1138.99
"Estrada do Rio Grande, Taquara",60 m²,1.0,2.0,1.0,R$ 800 /mês,condomínio R$ 580,IPTU R$ 26,-22.9183909,-43.3971464,Estrada do Rio Grande, Taquara,800,185.96
"Rua Conde de Bonfim, Tijuca",74 m²,2.0,2.0,,R$ 1.200 /mês,condomínio R$ 1.340,IPTU R$ 139,-22.9279379,-43.236188,Rua Conde de Bonfim, Tijuca,1200,278.94
"Rua Pereira da Silva, Laranjeiras",65 m²,,2.0,1.0,R$ 1.950 /mês,condomínio R$ 940,IPTU R$ 130,-22.930774600000003,-43.1868679,Rua Pereira da Silva, Laranjeiras,1950,453.27
"Andaraí, Rio de Janeiro",65 m²,1.0,2.0,1.0,R$ 1.600 /mês,condomínio R$ 695,IPTU R$ 65,-22.929084500000002,-43.25348579999999,Andaraí, Rio de Janeiro,1600,371.91
"Jacarepaguá, Rio de Janeiro",75 m²,2.0,2.0,1.0,R$ 1.050 /mês,condomínio R$ 1.298,IPTU R$ 112,-22.9665038,-43.371319299999996,Jacarepaguá, Rio de Janeiro,1050,244.07
"Avenida Lúcio Costa, Barra da Tijuca",67 m²,1.0,1.0,1.0,R$ 1.900 /mês,condomínio R$ 1.682,IPTU R$ 384,-23.014923800000002,-43.407209,Avenida Lúcio Costa, Barra da Tijuca,1900,441.65
"Rua Almirante Gomes Pereira, Urca",250 m²,3.0,4.0,2.0,R$ 10.000 /mês,condomínio R$ 3.120,IPTU R$ 948,-22.9434938,-43.1613911,Rua Almirante Gomes Pereira, Urca,10000,2324.46
"Estrada Pau-ferro, Pechincha",83 m²,2.0,2.0,1.0,R$ 1.100 /mês,condomínio R$ 570,IPTU R$ 89,-22.928988,-43.3534191,Estrada Pau-ferro, Pechincha,1100,255.69
"Rua João Afonso, Humaitá",75 m²,,2.0,,R$ 3.000 /mês,condomínio R$ 720,IPTU R$ 730,-22.955022800000002,-43.1998851,Rua João Afonso, Humaitá,3000,697.34
"Estrada Santa Maura, Jacarepaguá",48 m²,1.0,2.0,1.0,R$ 1.200 /mês,condomínio R$ 583,IPTU R$ 200,-22.964776399999998,-43.40202539999999,Estrada Santa Maura, Jacarepaguá,1200,278.94
"Rua Abélia, Jardim Guanabara",90 m²,2.0,3.0,2.0,R$ 2.100 /mês,condomínio R$ 550,IPTU R$ 100,-22.8110599,-43.1956299,Rua Abélia, Jardim Guanabara,2100,488.14
"Rua Mário Agostinelli, Jacarepaguá",91 m²,3.0,3.0,1.0,R$ 2.400 /mês,condomínio R$ 1.350,IPTU R$ 208,-22.9729585,-43.3822057,Rua Mário Agostinelli, Jacarepaguá,2400,557.87
"Rua da Passagem, Botafogo",110 m²,3.0,3.0,2.0,R$ 4.000 /mês,condomínio R$ 1.200,IPTU R$ 4.488,-22.9535105,-43.181536799999996,Rua da Passagem, Botafogo,4000,929.78
"Rua General Roca, Tijuca",68 m²,1.0,1.0,,R$ 1.400 /mês,condomínio R$ 900,IPTU R$ 103,-22.9240387,-43.234421399999995,Rua General Roca, Tijuca,1400,325.42
"Rua Oliveira da Silva, Tijuca",104 m²,3.0,3.0,1.0,R$ 2.500 /mês,condomínio R$ 900,IPTU R$ 1.200,-22.931799800000004,-43.2442237,Rua Oliveira da Silva, Tijuca,2500,581.12
"Avenida das Américas, Recreio dos Bandeirantes",63 m²,2.0,2.0,1.0,R$ 1.500 /mês,condomínio R$ 1.032,IPTU R$ 163,-23.0063466,-43.4358159,Avenida das Américas, Recreio dos Bandeirantes,1500,348.67
"Avenida Olof Palme, Camorim",67 m²,2.0,2.0,2.0,R$ 1.600 /mês,condomínio R$ 949,IPTU R$ 90,-22.977708399999997,-43.4172388,Avenida Olof Palme, Camorim,1600,371.91
"Avenida Epitácio Pessoa, Lagoa",310 m²,,4.0,4.0,R$ 28.000 /mês,condomínio R$ 4.229,IPTU R$ 17.083,-22.9803652,-43.2139765,Avenida Epitácio Pessoa, Lagoa,28000,6508.49
"Avenida Lúcio Costa, Barra da Tijuca",50 m²,1.0,1.0,1.0,R$ 1.900 /mês,condomínio R$ 1.450,IPTU R$ 295,-23.014923800000002,-43.407209,Avenida Lúcio Costa, Barra da Tijuca,1900,441.65
"Rua Visconde de Figueiredo, Tijuca",103 m²,1.0,2.0,1.0,R$ 1.800 /mês,condomínio R$ 901,IPTU R$ 164,-22.922873100000004,-43.227312100000006,Rua Visconde de Figueiredo, Tijuca,1800,418.4
"Rua Senador Euzebio, Flamengo",58 m²,2.0,1.0,1.0,R$ 2.250 /mês,condomínio R$ 1.009,IPTU R$ 162,-22.9376678,-43.1750188,Rua Senador Euzebio, Flamengo,2250,523.0
"Rua Pedro de Carvalho, Méier",50 m²,1.0,2.0,,R$ 1.000 /mês,condomínio R$ 370,IPTU R$ 17,-22.9077385,-43.2887029,Rua Pedro de Carvalho, Méier,1000,232.45
"Rua Marlo da Costa e Souza, Barra da Tijuca",72 m²,2.0,2.0,1.0,R$ 1.500 /mês,condomínio R$ 1.100,IPTU R$ 170,-22.9997404,-43.3659929,Rua Marlo da Costa e Souza, Barra da Tijuca,1500,348.67
"Rua Pedro de Carvalho, Méier",78 m²,2.0,2.0,1.0,R$ 1.200 /mês,condomínio R$ 780,IPTU R$ 90,-22.9077385,-43.2887029,Rua Pedro de Carvalho, Méier,1200,278.94
"Avenida Jarbas de Carvalho, Recreio dos Bandeirantes",100 m²,3.0,3.0,2.0,R$ 1.950 /mês,condomínio R$ 585,IPTU R$ 160,-23.027836100000002,-43.4690364,Avenida Jarbas de Carvalho, Recreio dos Bandeirantes,1950,453.27
"Rua Tucuma, Flamengo",159 m²,3.0,3.0,,R$ 4.800 /mês,condomínio R$ 1.450,,-22.9349348,-43.1749799,Rua Tucuma, Flamengo,4800,1115.74
"Avenida Prefeito Dulcídio Cardoso, Barra da Tijuca",84 m²,1.0,2.0,1.0,R$ 2.100 /mês,condomínio R$ 1.507,IPTU R$ 280,-23.0048388,-43.366279799999994,Avenida Prefeito Dulcídio Cardoso, Barra da Tijuca,2100,488.14
"Rua Sorocaba, Botafogo",101 m²,3.0,3.0,2.0,R$ 5.000 /mês,condomínio R$ 2.162,IPTU R$ 453,-22.9533486,-43.189868,Rua Sorocaba, Botafogo,5000,1162.23
"Estrada Benvindo de Novaes, Recreio dos Bandeirantes",75 m²,3.0,2.0,2.0,R$ 2.000 /mês,condomínio R$ 550,,-23.013892000000002,-43.4634254,Estrada Benvindo de Novaes, Recreio dos Bandeirantes,2000,464.89
"Rua Silva Xavier, Abolição",75 m²,2.0,3.0,,R$ 1.500 /mês,condomínio R$ 180,IPTU R$ 48,-22.8825033,-43.301931,Rua Silva Xavier, Abolição,1500,348.67
"Rua Piragibe, Inhaúma",70 m²,1.0,3.0,1.0,R$ 750 /mês,condomínio R$ 305,,-22.880412600000003,-43.2836702,Rua Piragibe, Inhaúma,750,174.33
"Rua Vaz de Caminha, Cachambi",98 m²,1.0,1.0,,R$ 1.000 /mês,IPTU R$ 60,,-22.894687899999997,-43.267554600000004,Rua Vaz de Caminha, Cachambi,1000,232.45
"Rua Conde de Bonfim, Tijuca",75 m²,2.0,2.0,1.0,R$ 2.000 /mês,condomínio R$ 850,IPTU R$ 133,-22.9279379,-43.236188,Rua Conde de Bonfim, Tijuca,2000,464.89
"Rua Soldado Abílio dos Passos, Pedra de Guaratiba",36 m²,,1.0,,R$ 600 /mês,,,-23.0014917,-43.6321467,Rua Soldado Abílio dos Passos, Pedra de Guaratiba,600,139.47
"Travessa Teodomiro Pereira, Freguesia (Jacarepaguá)",80 m²,1.0,2.0,1.0,R$ 1.450 /mês,condomínio R$ 850,IPTU R$ 227,-22.942635,-43.3336261,Travessa Teodomiro Pereira, Freguesia (Jacarepaguá),1450,337.05
"Rua Vinícius de Moraes, Ipanema",170 m²,3.0,3.0,1.0,R$ 6.500 /mês,condomínio R$ 1.955,IPTU R$ 8.158,-22.983272600000003,-43.202763,Rua Vinícius de Moraes, Ipanema,6500,1510.9
"Rua General Goes Monteiro, Botafogo",95 m²,3.0,3.0,1.0,R$ 3.150 /mês,condomínio R$ 1.580,IPTU R$ 230,-22.9557844,-43.1779417,Rua General Goes Monteiro, Botafogo,3150,732.2
"Rua Santos Titara, Todos os Santos",68 m²,2.0,2.0,1.0,R$ 1.200 /mês,condomínio R$ 876,IPTU R$ 16,-22.8997237,-43.285844899999994,Rua Santos Titara, Todos os Santos,1200,278.94
"Avenida Epitácio Pessoa, Ipanema",84 m²,2.0,2.0,1.0,R$ 3.600 /mês,condomínio R$ 990,IPTU R$ 460,-22.9805083,-43.213479299999996,Avenida Epitácio Pessoa, Ipanema,3600,836.81
"Rua Leopoldo Miguez, Copacabana",66 m²,1.0,2.0,,R$ 1.800 /mês,condomínio R$ 805,IPTU R$ 176,-22.975793300000003,-43.1912304,Rua Leopoldo Miguez, Copacabana,1800,418.4
"Avenida Rui Barbosa, Flamengo",250 m²,3.0,3.0,,R$ 7.000 /mês,condomínio R$ 1.642,IPTU R$ 861,-22.9387029,-43.17358170000001,Avenida Rui Barbosa, Flamengo,7000,1627.12
"Rua Barão de Mesquita, Tijuca",100 m²,3.0,3.0,2.0,R$ 3.100 /mês,condomínio R$ 1.167,IPTU R$ 95,-22.924047,-43.236416600000005,Rua Barão de Mesquita, Tijuca,3100,720.58
"Avenida Lúcio Costa, Barra da Tijuca",180 m²,4.0,4.0,4.0,R$ 7.000 /mês,condomínio R$ 3.200,IPTU R$ 1.100,-23.014923800000002,-43.407209,Avenida Lúcio Costa, Barra da Tijuca,7000,1627.12
"Rua do Resende, Centro",28 m²,1.0,1.0,,R$ 650 /mês,condomínio R$ 424,IPTU R$ 21,-19.9848225,-43.8443784,Rua do Resende, Centro,650,151.09
"Rua Senador Euzebio, Flamengo",100 m²,2.0,3.0,1.0,R$ 2.500 /mês,condomínio R$ 1.200,IPTU R$ 227,-22.9376678,-43.1750188,Rua Senador Euzebio, Flamengo,2500,581.12
"Avenida Vice-Presidente José Alencar, Jacarepaguá",70 m²,1.0,2.0,1.0,R$ 2.800 /mês,condomínio R$ 1.150,IPTU R$ 150,-22.9662234,-43.382768799999994,Avenida Vice-Presidente José Alencar, Jacarepaguá,2800,650.85
"Rua Tieta do Agreste, Recreio dos Bandeirantes",87 m²,3.0,3.0,2.0,R$ 2.600 /mês,condomínio R$ 638,,-23.021379,-43.485306,Rua Tieta do Agreste, Recreio dos Bandeirantes,2600,604.36
"Avenida Epitácio Pessoa, Lagoa",380 m²,4.0,3.0,4.0,R$ 25.000 /mês,condomínio R$ 5.000,IPTU R$ 2.100,-22.9803652,-43.2139765,Avenida Epitácio Pessoa, Lagoa,25000,5811.15
"Rua Julieta, Piedade",50 m²,1.0,2.0,,R$ 800 /mês,condomínio R$ 150,,-22.886248100000003,-43.306259399999995,Rua Julieta, Piedade,800,185.96
"Rua Conde de Bonfim, Tijuca",90 m²,1.0,3.0,1.0,R$ 1.800 /mês,condomínio R$ 867,IPTU R$ 106,-22.9279379,-43.236188,Rua Conde de Bonfim, Tijuca,1800,418.4
"Rua Gustavo Sampaio, Leme",30 m²,1.0,1.0,,R$ 1.400 /mês,condomínio R$ 550,IPTU R$ 29,-22.9628638,-43.1699883,Rua Gustavo Sampaio, Leme,1400,325.42
"Rua Almirante José do Cabo, Recreio dos Bandeirantes",120 m²,3.0,3.0,1.0,R$ 1.800 /mês,condomínio R$ 850,IPTU R$ 2.200,-23.0185151,-43.4634021,Rua Almirante José do Cabo, Recreio dos Bandeirantes,1800,418.4
"Rua Prudente de Morais, Ipanema",97 m²,2.0,1.0,8.0,R$ 8.000 /mês,condomínio R$ 1.800,IPTU R$ 478,-22.9855992,-43.1969718,Rua Prudente de Morais, Ipanema,8000,1859.57
"Rua Pedro de Carvalho, Méier",50 m²,1.0,2.0,,R$ 1.200 /mês,condomínio R$ 370,IPTU R$ 17,-22.9077385,-43.2887029,Rua Pedro de Carvalho, Méier,1200,278.94
"Avenida Bartolomeu Mitre, Leblon",84 m²,3.0,2.0,1.0,R$ 2.900 /mês,condomínio R$ 800,IPTU R$ 291,-22.9777288,-43.224804999999996,Avenida Bartolomeu Mitre, Leblon,2900,674.09
"Avenida Augusto Severo, Glória",58 m²,,2.0,,R$ 2.200 /mês,condomínio R$ 595,,-22.919845000000002,-43.17533529999999,Avenida Augusto Severo, Glória,2200,511.38
"Rua Pereira Frazão, Praça Seca",75 m²,2.0,2.0,1.0,R$ 1.350 /mês,condomínio R$ 320,IPTU R$ 56,-22.88769,-43.354167600000004,Rua Pereira Frazão, Praça Seca,1350,313.8
"Rua Murilo de Araújo, Recreio dos Bandeirantes",102 m²,1.0,3.0,2.0,R$ 2.200 /mês,condomínio R$ 822,IPTU R$ 210,-23.0185151,-43.4634021,Rua Murilo de Araújo, Recreio dos Bandeirantes,2200,511.38
"Rua Nascimento Silva, Ipanema",65 m²,2.0,2.0,1.0,R$ 4.500 /mês,condomínio R$ 1.000,IPTU R$ 145,-22.9819833,-43.206933,Rua Nascimento Silva, Ipanema,4500,1046.01
"Rua Comendador Siqueira, Pechincha",60 m²,2.0,2.0,1.0,R$ 1.500 /mês,condomínio R$ 440,,-22.9251523,-43.3478346,Rua Comendador Siqueira, Pechincha,1500,348.67
"Estrada de Camorim, Jacarepaguá",56 m²,2.0,2.0,1.0,R$ 1.400 /mês,condomínio R$ 500,,-22.969351,-43.4257664,Estrada de Camorim, Jacarepaguá,1400,325.42
"Estrada Cachamorra, Campo Grande",70 m²,,2.0,1.0,R$ 1.300 /mês,condomínio R$ 550,IPTU R$ 45,-22.94624115,-43.557178065955135,Estrada Cachamorra, Campo Grande,1300,302.18
"Rua Raul Pompéia, Copacabana",55 m²,1.0,1.0,1.0,R$ 2.100 /mês,condomínio R$ 350,IPTU R$ 30,-22.9859524,-43.1911156,Rua Raul Pompéia, Copacabana,2100,488.14
"Rua Odilon Martins de Andrade, Recreio dos Bandeirantes",104 m²,3.0,2.0,1.0,R$ 2.200 /mês,condomínio R$ 680,IPTU R$ 263,-23.011040700000002,-43.446195,Rua Odilon Martins de Andrade, Recreio dos Bandeirantes,2200,511.38
"Rua Mamoré, Freguesia (Jacarepaguá)",98 m²,3.0,2.0,1.0,R$ 1.200 /mês,condomínio R$ 808,IPTU R$ 102,-22.9380848,-43.342701,Rua Mamoré, Freguesia (Jacarepaguá),1200,278.94
"Estrada de Camorim, Jacarepaguá",63 m²,2.0,3.0,1.0,R$ 1.500 /mês,condomínio R$ 500,,-22.969351,-43.4257664,Estrada de Camorim, Jacarepaguá,1500,348.67
"Rua Faro, Jardim Botânico",80 m²,3.0,2.0,1.0,R$ 2.700 /mês,condomínio R$ 930,IPTU R$ 269,-22.9624017,-43.2182329,Rua Faro, Jardim Botânico,2700,627.6
"Jacarepaguá, Rio de Janeiro",70 m²,3.0,3.0,1.0,R$ 1.600 /mês,condomínio R$ 750,IPTU R$ 129,-22.9665038,-43.371319299999996,Jacarepaguá, Rio de Janeiro,1600,371.91
"Rua Uruguai, Andaraí",103 m²,3.0,3.0,1.0,R$ 2.500 /mês,condomínio R$ 700,IPTU R$ 210,-22.9215236,-43.248205299999995,Rua Uruguai, Andaraí,2500,581.12
"Rua Cândido Mendes, Glória",42 m²,1.0,1.0,,R$ 1.800 /mês,condomínio R$ 507,IPTU R$ 75,-22.9202866,-43.1815614,Rua Cândido Mendes, Glória,1800,418.4
"Rua Desembargador Izidro, Tijuca",52 m²,1.0,1.0,1.0,R$ 1.800 /mês,condomínio R$ 400,IPTU R$ 62,-22.9293303,-43.233988399999994,Rua Desembargador Izidro, Tijuca,1800,418.4
"Rua Doutor Alfredo Barcelos, Olaria",80 m²,2.0,2.0,1.0,R$ 1.200 /mês,condomínio R$ 521,IPTU R$ 300,-22.847448800000002,-43.2657271,Rua Doutor Alfredo Barcelos, Olaria,1200,278.94
"Estrada do Cafundá, Taquara",75 m²,2.0,2.0,1.0,R$ 1.074 /mês,condomínio R$ 300,IPTU R$ 42,-22.907092199999997,-43.379624799999995,Estrada do Cafundá, Taquara,1074,249.65
"Rua Capanema, Tauá",92 m²,2.0,2.0,1.0,R$ 1.600 /mês,condomínio R$ 446,IPTU R$ 93,-22.7940287,-43.1837434,Rua Capanema, Tauá,1600,371.91
"Rua Senador Muniz Freire, Vila Isabel",56 m²,2.0,2.0,1.0,R$ 2.600 /mês,condomínio R$ 715,IPTU R$ 100,-22.921514300000002,-43.2410925,Rua Senador Muniz Freire, Vila Isabel,2600,604.36
"Rua Ana Silva, Pechincha",200 m²,3.0,3.0,1.0,R$ 2.200 /mês,condomínio R$ 1.000,IPTU R$ 200,-22.923876500000002,-43.353021999999996,Rua Ana Silva, Pechincha,2200,511.38
"Estrada Pau-ferro, Pechincha",67 m²,2.0,3.0,1.0,R$ 850 /mês,condomínio R$ 610,,-22.928988,-43.3534191,Estrada Pau-ferro, Pechincha,850,197.58
"Rua Ipiranga, Laranjeiras",85 m²,3.0,2.0,1.0,R$ 3.200 /mês,condomínio R$ 820,IPTU R$ 202,-22.9335525,-43.1829814,Rua Ipiranga, Laranjeiras,3200,743.83
"Rua Senador Vergueiro, Flamengo",41 m²,1.0,1.0,1.0,R$ 2.000 /mês,condomínio R$ 542,IPTU R$ 78,-22.934022100000004,-43.176146,Rua Senador Vergueiro, Flamengo,2000,464.89
"Rua Embaixador Ramon Carcano, Tijuca",63 m²,2.0,2.0,1.0,R$ 2.050 /mês,condomínio R$ 600,IPTU R$ 92,-22.9332164,-43.2381453,Rua Embaixador Ramon Carcano, Tijuca,2050,476.51
"Rua Artur Possolo, Recreio dos Bandeirantes",88 m²,3.0,2.0,2.0,R$ 1.700 /mês,condomínio R$ 600,IPTU R$ 180,-23.0185151,-43.4634021,Rua Artur Possolo, Recreio dos Bandeirantes,1700,395.16
"Rua Ana Leonidia, Engenho de Dentro",70 m²,2.0,2.0,1.0,R$ 1.200 /mês,condomínio R$ 740,IPTU R$ 100,-22.900502600000003,-43.2976489,Rua Ana Leonidia, Engenho de Dentro,1200,278.94
"Rua Ana Silva, Pechincha",75 m²,2.0,3.0,1.0,R$ 1.350 /mês,condomínio R$ 580,IPTU R$ 84,-22.923876500000002,-43.353021999999996,Rua Ana Silva, Pechincha,1350,313.8
"Rua Engenheiro Enaldo Cravo Peixoto, Tijuca",72 m²,,2.0,1.0,R$ 2.200 /mês,condomínio R$ 807,IPTU R$ 168,-22.9219495,-43.2345965,Rua Engenheiro Enaldo Cravo Peixoto, Tijuca,2200,511.38
"Rua Visconde de Itamarati, Maracanã",70 m²,2.0,2.0,,R$ 1.700 /mês,condomínio R$ 630,IPTU R$ 66,-22.9159421,-43.230912700000005,Rua Visconde de Itamarati, Maracanã,1700,395.16
"Rua Delfim Carlos, Olaria",86 m²,2.0,2.0,1.0,R$ 1.250 /mês,condomínio R$ 500,IPTU R$ 24,-22.8490188,-43.2703424,Rua Delfim Carlos, Olaria,1250,290.56
"Rua Comandante Rúbens Silva, Freguesia (Jacarepaguá)",75 m²,2.0,2.0,1.0,R$ 1.400 /mês,condomínio R$ 650,IPTU R$ 150,-22.9375718,-43.3373098,Rua Comandante Rúbens Silva, Freguesia (Jacarepaguá),1400,325.42
"Barra da Tijuca, Rio de Janeiro",197 m²,,3.0,2.0,R$ 6.200 /mês,condomínio R$ 2.540,,-22.999740399999997,-43.3659929,Barra da Tijuca, Rio de Janeiro,6200,1441.17
"Rua das Laranjeiras, Laranjeiras",32 m²,1.0,1.0,,R$ 1.500 /mês,condomínio R$ 399,IPTU R$ 30,-22.9323641,-43.1821872,Rua das Laranjeiras, Laranjeiras,1500,348.67
"Rua General Urquiza, Leblon",160 m²,3.0,3.0,1.0,R$ 9.000 /mês,condomínio R$ 2.433,IPTU R$ 498,-22.984592000000003,-43.2241076,Rua General Urquiza, Leblon,9000,2092.01
"Avenida Genaro de Carvalho, Recreio dos Bandeirantes",85 m²,,2.0,,R$ 1.600 /mês,condomínio R$ 780,IPTU R$ 203,-23.014309,-43.450272600000005,Avenida Genaro de Carvalho, Recreio dos Bandeirantes,1600,371.91
"Rua Barata Ribeiro, Copacabana",60 m²,1.0,2.0,,R$ 2.000 /mês,condomínio R$ 830,IPTU R$ 106,-22.9654545,-43.18084520000001,Rua Barata Ribeiro, Copacabana,2000,464.89
"Rua Comendador Siqueira, Pechincha",108 m²,3.0,3.0,2.0,R$ 800 /mês,condomínio R$ 924,IPTU R$ 90,-22.9251523,-43.3478346,Rua Comendador Siqueira, Pechincha,800,185.96
"Rua Sérgio Branco Soares, Recreio dos Bandeirantes",240 m²,,3.0,2.0,R$ 2.250 /mês,condomínio R$ 1.070,IPTU R$ 644,-23.0185151,-43.4634021,Rua Sérgio Branco Soares, Recreio dos Bandeirantes,2250,523.0
"Rua Senador Muniz Freire, Vila Isabel",88 m²,3.0,2.0,1.0,R$ 1.800 /mês,condomínio R$ 925,IPTU R$ 100,-22.921514300000002,-43.2410925,Rua Senador Muniz Freire, Vila Isabel,1800,418.4
"Avenida Vieira Souto, Ipanema",250 m²,,4.0,2.0,R$ 26.000 /mês,condomínio R$ 4.635,IPTU R$ 2.964,-22.9862375,-43.209178200000004,Avenida Vieira Souto, Ipanema,26000,6043.6
"Rua Getúlio, Todos os Santos",74 m²,1.0,2.0,1.0,R$ 1.000 /mês,condomínio R$ 580,IPTU R$ 78,-22.8929679,-43.2788216,Rua Getúlio, Todos os Santos,1000,232.45
"Avenida Salvador Allende, Barra da Tijuca",69 m²,3.0,2.0,,R$ 1.600 /mês,condomínio R$ 914,IPTU R$ 170,-22.992185600000003,-43.421174,Avenida Salvador Allende, Barra da Tijuca,1600,371.91
"Rua Aristides Caire, Méier",40 m²,1.0,1.0,,R$ 1.200 /mês,condomínio R$ 280,,-22.899449800000003,-43.2786542,Rua Aristides Caire, Méier,1200,278.94
"Rua Dezenove de Fevereiro, Botafogo",108 m²,5.0,3.0,1.0,R$ 5.970 /mês,condomínio R$ 1.680,IPTU R$ 455,-22.948844649999998,-43.17982909625297,Rua Dezenove de Fevereiro, Botafogo,5970,1387.7
"Recreio dos Bandeirantes, Rio de Janeiro",70 m²,2.0,2.0,1.0,R$ 1.600 /mês,condomínio R$ 1.000,IPTU R$ 167,-23.018515100000002,-43.4634021,Recreio dos Bandeirantes, Rio de Janeiro,1600,371.91
"Avenida Geremário Dantas, Pechincha",180 m²,1.0,2.0,,R$ 1.500 /mês,,,-22.9248493,-43.3596031,Avenida Geremário Dantas, Pechincha,1500,348.67
"Rua Tenente Possolo, Centro",67 m²,2.0,2.0,,R$ 1.650 /mês,condomínio R$ 352,IPTU R$ 70,-22.9115444,-43.1910305,Rua Tenente Possolo, Centro,1650,383.54
"Pechincha, Rio de Janeiro",35 m²,1.0,1.0,1.0,R$ 700 /mês,condomínio R$ 420,IPTU R$ 17,-22.928988,-43.353419099999996,Pechincha, Rio de Janeiro,700,162.71
"Rua João Torquato, Bonsucesso",70 m²,1.0,2.0,,R$ 1.000 /mês,condomínio R$ 280,,-22.857947,-43.2536341,Rua João Torquato, Bonsucesso,1000,232.45
"Rua Jardim Botânico, Jardim Botânico",65 m²,2.0,2.0,1.0,R$ 2.400 /mês,condomínio R$ 1.280,IPTU R$ 150,-22.9641285,-43.2174013,Rua Jardim Botânico, Jardim Botânico,2400,557.87
"Rua Paulo Silva Araújo, Todos os Santos",59 m²,1.0,1.0,1.0,R$ 950 /mês,condomínio R$ 618,IPTU R$ 52,-22.8997237,-43.285844899999994,Rua Paulo Silva Araújo, Todos os Santos,950,220.82
"Avenida das Américas, Barra da Tijuca",93 m²,,2.0,1.0,R$ 3.000 /mês,condomínio R$ 1.110,IPTU R$ 307,-23.000417300000002,-43.332459,Avenida das Américas, Barra da Tijuca,3000,697.34
"Avenida dos Mananciais, Taquara",70 m²,4.0,3.0,1.0,R$ 1.600 /mês,condomínio R$ 595,IPTU R$ 137,-22.9165104,-43.3788967,Avenida dos Mananciais, Taquara,1600,371.91
"Avenida Vieira Souto, Ipanema",312 m²,5.0,4.0,3.0,R$ 50.000 /mês,condomínio R$ 5.876,IPTU R$ 3.202,-22.9862375,-43.209178200000004,Avenida Vieira Souto, Ipanema,50000,11622.3
"Rua Itaipava, Jardim Botânico",47 m²,2.0,1.0,,R$ 3.400 /mês,condomínio R$ 1,,-22.961779699999997,-43.2185343,Rua Itaipava, Jardim Botânico,3400,790.32
"Praia Botafogo, Botafogo",88 m²,2.0,2.0,,R$ 2.200 /mês,condomínio R$ 1.060,IPTU R$ 173,-22.9454241,-43.18079099640421,Praia Botafogo, Botafogo,2200,511.38
"Rua do Resende, Centro",37 m²,2.0,1.0,,R$ 700 /mês,condomínio R$ 430,IPTU R$ 25,-19.9848225,-43.8443784,Rua do Resende, Centro,700,162.71
"Rua Sambaíba, Leblon",168 m²,2.0,3.0,3.0,R$ 13.200 /mês,condomínio R$ 3.349,IPTU R$ 637,-22.9865648,-43.2324401,Rua Sambaíba, Leblon,13200,3068.29
"Avenida Rio Branco, Centro",50 m²,1.0,1.0,,R$ 1.000 /mês,condomínio R$ 630,IPTU R$ 184,-5.1925915,-37.3476771,Avenida Rio Branco, Centro,1000,232.45
"Rua Fábio Luz, Méier",48 m²,1.0,2.0,1.0,R$ 1.100 /mês,condomínio R$ 370,IPTU R$ 58,-22.9026425,-43.2817263,Rua Fábio Luz, Méier,1100,255.69
"Rua Henrique Stamile Coutinho, Recreio dos Bandeirantes",87 m²,3.0,2.0,2.0,R$ 2.200 /mês,condomínio R$ 420,IPTU R$ 228,-23.020068300000002,-43.4642256,Rua Henrique Stamile Coutinho, Recreio dos Bandeirantes,2200,511.38
"Avenida Lúcio Costa, Barra da Tijuca",110 m²,3.0,2.0,1.0,R$ 5.200 /mês,condomínio R$ 2.800,,-23.014923800000002,-43.407209,Avenida Lúcio Costa, Barra da Tijuca,5200,1208.72
"Avenida Nossa Senhora de Copacabana, Copacabana",69 m²,2.0,2.0,,R$ 3.000 /mês,condomínio R$ 765,IPTU R$ 175,-22.968132699999998,-43.1830609,Avenida Nossa Senhora de Copacabana, Copacabana,3000,697.34
"Rua Aroazes, Jacarepaguá",67 m²,1.0,2.0,1.0,R$ 1.650 /mês,condomínio R$ 684,IPTU R$ 98,-22.9709611,-43.395351399999996,Rua Aroazes, Jacarepaguá,1650,383.54
"Rua Alberto de Campos, Ipanema",98 m²,3.0,3.0,1.0,R$ 5.500 /mês,condomínio R$ 844,IPTU R$ 2.000,-22.981271300000003,-43.2004164,Rua Alberto de Campos, Ipanema,5500,1278.45
"Rua Ituverava, Freguesia de Jacarepaguá",78 m²,3.0,3.0,,R$ 2.100 /mês,condomínio R$ 580,IPTU R$ 150,-22.9408899,-43.3422564,Rua Ituverava, Freguesia de Jacarepaguá,2100,488.14
"Rua Marquês de São Vicente, Gávea",71 m²,1.0,2.0,,R$ 2.500 /mês,condomínio R$ 632,IPTU R$ 233,-22.9770236,-43.230294,Rua Marquês de São Vicente, Gávea,2500,581.12
"Rua Décio Vilares, Copacabana",120 m²,3.0,2.0,2.0,R$ 3.650 /mês,condomínio R$ 1.500,IPTU R$ 520,-22.9663701,-43.1901344,Rua Décio Vilares, Copacabana,3650,848.43
"Recreio dos Bandeirantes, Rio de Janeiro",88 m²,2.0,1.0,1.0,R$ 2.750 /mês,condomínio R$ 1.900,IPTU R$ 441,-23.018515100000002,-43.4634021,Recreio dos Bandeirantes, Rio de Janeiro,2750,639.23
"Rua Professor Taciel Cylleno, Recreio dos Bandeirantes",200 m²,4.0,3.0,2.0,R$ 3.500 /mês,condomínio R$ 1.200,IPTU R$ 482,-23.0138747,-43.4472612,Rua Professor Taciel Cylleno, Recreio dos Bandeirantes,3500,813.56
"Rua Santa Mariana, Higienópolis",40 m²,1.0,1.0,,R$ 700 /mês,condomínio R$ 60,,-22.869865100000002,-43.2649184,Rua Santa Mariana, Higienópolis,700,162.71
"Avenida Atlântica, Copacabana",230 m²,5.0,3.0,1.0,R$ 17.000 /mês,condomínio R$ 2.500,IPTU R$ 9.630,-22.9766415,-43.188297,Avenida Atlântica, Copacabana,17000,3951.58
"Rua Dias Ferreira, Leblon",125 m²,1.0,3.0,1.0,R$ 4.200 /mês,condomínio R$ 1.256,IPTU R$ 460,-22.9832566,-43.2265394,Rua Dias Ferreira, Leblon,4200,976.27
"Rua da Relação, Centro",46 m²,1.0,1.0,,R$ 1.700 /mês,condomínio R$ 650,IPTU R$ 70,-22.9104023,-43.1840864,Rua da Relação, Centro,1700,395.16
"Rua Justiniano Serpa, Higienópolis",25 m²,1.0,1.0,,R$ 600 /mês,IPTU R$ 25,,-22.873999,-43.2613682,Rua Justiniano Serpa, Higienópolis,600,139.47
"Rua Gurupi, Grajaú",59 m²,1.0,2.0,,R$ 1.200 /mês,condomínio R$ 304,IPTU R$ 26,-22.9210288,-43.2609171,Rua Gurupi, Grajaú,1200,278.94
"Rua Cardeal Dom Sebastião Leme, Santa Teresa",65 m²,1.0,1.0,,R$ 1.800 /mês,condomínio R$ 350,IPTU R$ 30,-22.9173799,-43.18917929999999,Rua Cardeal Dom Sebastião Leme, Santa Teresa,1800,418.4
"Avenida Niemeyer, Leblon",850 m²,7.0,5.0,6.0,R$ 32.000 /mês,condomínio R$ 1.500,IPTU R$ 6.000,-22.989371600000002,-43.2275833,Avenida Niemeyer, Leblon,32000,7438.27
"Rua Engenheiro Gama Lobo, Vila Isabel",114 m²,3.0,3.0,1.0,R$ 1.950 /mês,condomínio R$ 1.000,IPTU R$ 142,-22.9121741,-43.2460158,Rua Engenheiro Gama Lobo, Vila Isabel,1950,453.27
"Avenida Vieira Souto, Ipanema",110 m²,4.0,2.0,1.0,R$ 7.000 /mês,condomínio R$ 2.800,IPTU R$ 14.000,-22.9862375,-43.209178200000004,Avenida Vieira Souto, Ipanema,7000,1627.12
"Avenida Genaro de Carvalho, Recreio dos Bandeirantes",86 m²,3.0,2.0,2.0,R$ 1.600 /mês,condomínio R$ 820,IPTU R$ 209,-23.014309,-43.450272600000005,Avenida Genaro de Carvalho, Recreio dos Bandeirantes,1600,371.91
"Rua Santa Clara, Copacabana",40 m²,1.0,1.0,,R$ 1.200 /mês,condomínio R$ 644,IPTU R$ 105,-22.9690461,-43.18946629999999,Rua Santa Clara, Copacabana,1200,278.94
"Avenida Lúcio Costa, Barra da Tijuca",34 m²,1.0,1.0,1.0,R$ 1.400 /mês,condomínio R$ 750,IPTU R$ 161,-23.014923800000002,-43.407209,Avenida Lúcio Costa, Barra da Tijuca,1400,325.42
"Avenida Oswaldo Cruz, Flamengo",100 m²,4.0,2.0,1.0,R$ 3.700 /mês,condomínio R$ 750,IPTU R$ 350,-22.9393527,-43.1745967,Avenida Oswaldo Cruz, Flamengo,3700,860.05
"Estrada do Bananal, Freguesia (Jacarepaguá)",81 m²,1.0,2.0,1.0,R$ 1.850 /mês,condomínio R$ 702,IPTU R$ 161,-22.9382421,-43.3327874,Estrada do Bananal, Freguesia (Jacarepaguá),1850,430.03
"Rua São Clemente, Botafogo",70 m²,2.0,2.0,1.0,R$ 3.000 /mês,condomínio R$ 878,IPTU R$ 172,-22.9500463,-43.191054799999996,Rua São Clemente, Botafogo,3000,697.34
"Rua Geminiano Gois, Freguesia (Jacarepaguá)",67 m²,2.0,2.0,,R$ 1.000 /mês,condomínio R$ 750,,-22.937072600000004,-43.3354416,Rua Geminiano Gois, Freguesia (Jacarepaguá),1000,232.45
"Rua Gaspar Magalhães, Jardim Guanabara",96 m²,3.0,3.0,2.0,R$ 2.000 /mês,condomínio R$ 400,IPTU R$ 208,-22.8121859,-43.207857399999995,Rua Gaspar Magalhães, Jardim Guanabara,2000,464.89
"Rua Sambaíba, Leblon",255 m²,5.0,4.0,2.0,R$ 15.000 /mês,condomínio R$ 936,IPTU R$ 8.261,-22.9865648,-43.2324401,Rua Sambaíba, Leblon,15000,3486.69
"Estrada Marechal Miguel Salazar Mendes de Morais, Taquara",65 m²,1.0,3.0,1.0,R$ 750 /mês,condomínio R$ 550,,-22.9383865,-43.3691072,Estrada Marechal Miguel Salazar Mendes de Morais, Taquara,750,174.33
"Rua Lady Laura, Recreio dos Bandeirantes",87 m²,2.0,3.0,1.0,R$ 1.900 /mês,condomínio R$ 1.047,IPTU R$ 166,-23.01745,-43.4826994,Rua Lady Laura, Recreio dos Bandeirantes,1900,441.65
"Rua Aristarco Ramos, Ilha do Governador",91 m²,2.0,2.0,1.0,R$ 1.300 /mês,condomínio R$ 425,IPTU R$ 90,-22.8049732,-43.21986610772104,Rua Aristarco Ramos, Ilha do Governador,1300,302.18
"Praia do Flamengo, Flamengo",212 m²,4.0,3.0,,R$ 3.700 /mês,condomínio R$ 1.200,IPTU R$ 450,-22.9282465,-43.17079041917478,Praia do Flamengo, Flamengo,3700,860.05
"Avenida Genaro de Carvalho, Recreio dos Bandeirantes",130 m²,2.0,3.0,2.0,R$ 2.190 /mês,condomínio R$ 797,IPTU R$ 337,-23.014309,-43.450272600000005,Avenida Genaro de Carvalho, Recreio dos Bandeirantes,2190,509.06
"Avenida das Américas, Recreio dos Bandeirantes",75 m²,1.0,2.0,1.0,R$ 1.700 /mês,condomínio R$ 800,IPTU R$ 173,-23.0063466,-43.4358159,Avenida das Américas, Recreio dos Bandeirantes,1700,395.16
"Avenida Lúcio Costa, Barra da Tijuca",140 m²,3.0,3.0,2.0,R$ 3.100 /mês,condomínio R$ 1.300,IPTU R$ 500,-23.014923800000002,-43.407209,Avenida Lúcio Costa, Barra da Tijuca,3100,720.58
"Praia Botafogo, Botafogo",164 m²,1.0,4.0,2.0,R$ 10.000 /mês,condomínio R$ 2.196,IPTU R$ 491,-22.9454241,-43.18079099640421,Praia Botafogo, Botafogo,10000,2324.46
"Rua Dona Mariana, Botafogo",75 m²,2.0,2.0,,R$ 2.000 /mês,condomínio R$ 1.013,IPTU R$ 156,-22.953016899999998,-43.1885829,Rua Dona Mariana, Botafogo,2000,464.89
"Rua Barão de Jaguaripe, Ipanema",163 m²,2.0,3.0,2.0,R$ 7.500 /mês,condomínio R$ 3.400,IPTU R$ 961,-22.9813398,-43.209011700000005,Rua Barão de Jaguaripe, Ipanema,7500,1743.35
"Rua do Pinheiro, Flamengo",43 m²,1.0,1.0,,R$ 2.100 /mês,condomínio R$ 650,,-22.9312548,-43.1766407,Rua do Pinheiro, Flamengo,2100,488.14
"Avenida Alda Garrido, Barra da Tijuca",168 m²,2.0,3.0,2.0,R$ 4.500 /mês,condomínio R$ 1.680,IPTU R$ 500,-23.0080982,-43.3146633,Avenida Alda Garrido, Barra da Tijuca,4500,1046.01
"Rua Antônio de Abreu, Madureira",51 m²,1.0,2.0,1.0,R$ 800 /mês,condomínio R$ 524,IPTU R$ 10,-22.869601,-43.3410262,Rua Antônio de Abreu, Madureira,800,185.96
"Rua Vítor Meireles, Riachuelo",75 m²,1.0,3.0,1.0,R$ 1.300 /mês,condomínio R$ 786,IPTU R$ 55,-5.8121386,-35.8234357,Rua Vítor Meireles, Riachuelo,1300,302.18
"Rua Professor Hermes Lima, Recreio dos Bandeirantes",90 m²,3.0,2.0,1.0,R$ 1.600 /mês,condomínio R$ 570,IPTU R$ 180,-23.0217033,-43.4559279,Rua Professor Hermes Lima, Recreio dos Bandeirantes,1600,371.91
"Copacabana, Rio de Janeiro",212 m²,2.0,4.0,2.0,R$ 9.000 /mês,condomínio R$ 2.200,IPTU R$ 914,-22.9719642,-43.1843432,Copacabana, Rio de Janeiro,9000,2092.01
"Avenida Lúcio Costa, Barra da Tijuca",115 m²,3.0,2.0,2.0,R$ 6.000 /mês,condomínio R$ 2.010,IPTU R$ 610,-23.014923800000002,-43.407209,Avenida Lúcio Costa, Barra da Tijuca,6000,1394.68
"Avenida Teixeira de Castro, Ramos",50 m²,1.0,1.0,,R$ 900 /mês,condomínio R$ 50,IPTU R$ 10,-22.85035055,-43.24856791136922,Avenida Teixeira de Castro, Ramos,900,209.2
"Avenida Aquarela do Brasil, São Conrado",166 m²,4.0,4.0,2.0,R$ 4.000 /mês,condomínio R$ 2.190,IPTU R$ 448,-22.995678100000003,-43.255430700000005,Avenida Aquarela do Brasil, São Conrado,4000,929.78
"Avenida Atlântica, Copacabana",354 m²,2.0,4.0,2.0,R$ 9.500 /mês,condomínio R$ 4.750,IPTU R$ 1.695,-22.9766415,-43.188297,Avenida Atlântica, Copacabana,9500,2208.24
"Rua Barão do Bom Retiro, Grajau",62 m²,1.0,2.0,1.0,R$ 1.150 /mês,condomínio R$ 650,IPTU R$ 55,-22.9195247,-43.2615033,Rua Barão do Bom Retiro, Grajau,1150,267.31
"Rua Francisco Otaviano, Ipanema",316 m²,,4.0,2.0,R$ 17.000 /mês,condomínio R$ 3.630,IPTU R$ 1.340,-22.986987300000003,-43.1909986,Rua Francisco Otaviano, Ipanema,17000,3951.58
"Rua Lópes Quintas, Jardim Botânico",100 m²,2.0,2.0,1.0,R$ 3.500 /mês,condomínio R$ 1.250,,-22.9631893,-43.2225979,Rua Lópes Quintas, Jardim Botânico,3500,813.56
"Rua Silvia Pozzano, Recreio dos Bandeirantes",91 m²,2.0,3.0,2.0,R$ 1.850 /mês,condomínio R$ 1.150,IPTU R$ 195,-23.0066417,-43.4845412,Rua Silvia Pozzano, Recreio dos Bandeirantes,1850,430.03
"Ipanema, Rio de Janeiro",410 m²,3.0,3.0,2.0,R$ 29.000 /mês,condomínio R$ 7.613,IPTU R$ 3.920,-22.9839557,-43.202216299999996,Ipanema, Rio de Janeiro,29000,6740.93
"Rua Arquiteto Simon Wiesenthal, Vargem Pequena",45 m²,1.0,1.0,,R$ 1.100 /mês,,,-22.9818187,-43.4578117,Rua Arquiteto Simon Wiesenthal, Vargem Pequena,1100,255.69
"Estrada do Bananal, Freguesia (Jacarepaguá)",190 m²,1.0,3.0,1.0,R$ 3.000 /mês,condomínio R$ 1.186,IPTU R$ 386,-22.9382421,-43.3327874,Estrada do Bananal, Freguesia (Jacarepaguá),3000,697.34
"Freguesia de Jacarepaguá, Rio de Janeiro",118 m²,3.0,2.0,1.0,R$ 1.700 /mês,condomínio R$ 750,,-22.93394695,-43.33649233654077,Freguesia de Jacarepaguá, Rio de Janeiro,1700,395.16
"Rua Almirante Guilhem, Leblon",50 m²,1.0,1.0,1.0,R$ 6.500 /mês,condomínio R$ 2.034,IPTU R$ 313,-22.9837378,-43.218886600000005,Rua Almirante Guilhem, Leblon,6500,1510.9
"Rua le Corbusier, Barra da Tijuca",78 m²,2.0,3.0,1.0,R$ 1.900 /mês,condomínio R$ 806,IPTU R$ 171,-22.9997404,-43.3659929,Rua le Corbusier, Barra da Tijuca,1900,441.65
"Rua Ministro Raul Fernandes, Botafogo",110 m²,4.0,3.0,2.0,R$ 5.297 /mês,condomínio R$ 1.100,IPTU R$ 400,-22.945970300000003,-43.188287200000005,Rua Ministro Raul Fernandes, Botafogo,5297,1231.27
"Rua Siqueira Campos, Copacabana",65 m²,2.0,2.0,,R$ 1.640 /mês,condomínio R$ 760,IPTU R$ 200,-22.968515300000004,-43.1850961,Rua Siqueira Campos, Copacabana,1640,381.21
"Rua Ivo Borges, Recreio dos Bandeirantes",100 m²,2.0,2.0,3.0,R$ 2.150 /mês,condomínio R$ 600,IPTU R$ 270,-23.016643600000002,-43.4687359,Rua Ivo Borges, Recreio dos Bandeirantes,2150,499.76
"Rua Assunção, Botafogo",90 m²,2.0,2.0,1.0,R$ 3.000 /mês,condomínio R$ 950,IPTU R$ 120,-22.943613199999998,-43.185880499999996,Rua Assunção, Botafogo,3000,697.34
"Avenida Glaucio Gil, Recreio dos Bandeirantes",139 m²,2.0,2.0,2.0,R$ 1.900 /mês,condomínio R$ 850,IPTU R$ 350,-23.0147819,-43.4610052,Avenida Glaucio Gil, Recreio dos Bandeirantes,1900,441.65
"Rua Barão, Praça Seca",48 m²,1.0,2.0,1.0,R$ 500 /mês,condomínio R$ 318,,-22.900933600000002,-43.349234100000004,Rua Barão, Praça Seca,500,116.22
"Rua Jornalista Henrique Cordeiro, Barra da Tijuca",100 m²,2.0,3.0,1.0,R$ 2.600 /mês,condomínio R$ 1.145,IPTU R$ 245,-23.004016800000002,-43.3247702,Rua Jornalista Henrique Cordeiro, Barra da Tijuca,2600,604.36
"Rua Engenheiro Haroldo Cavalcanti, Recreio dos Bandeirantes",90 m²,1.0,2.0,1.0,R$ 1.600 /mês,condomínio R$ 694,IPTU R$ 180,-23.0217927,-43.4621779,Rua Engenheiro Haroldo Cavalcanti, Recreio dos Bandeirantes,1600,371.91
"Rua Alberto de Campos, Ipanema",76 m²,2.0,2.0,,R$ 3.800 /mês,condomínio R$ 800,IPTU R$ 218,-22.981271300000003,-43.2004164,Rua Alberto de Campos, Ipanema,3800,883.29
"Avenida Presidente Vargas, Centro",56 m²,1.0,2.0,,R$ 1.500 /mês,condomínio R$ 502,,-15.5078459,-41.2352684,Avenida Presidente Vargas, Centro,1500,348.67
"Rua Ituverava, Freguesia de Jacarepaguá",77 m²,3.0,3.0,2.0,R$ 2.100 /mês,condomínio R$ 695,IPTU R$ 138,-22.9408899,-43.3422564,Rua Ituverava, Freguesia de Jacarepaguá,2100,488.14
"Rua das Amendoeiras, Cosmos",43 m²,,2.0,1.0,R$ 550 /mês,condomínio R$ 300,,-22.9191815,-43.6155325,Rua das Amendoeiras, Cosmos,550,127.85
"Rua Real Grandeza, Botafogo",67 m²,2.0,2.0,,R$ 2.400 /mês,condomínio R$ 650,IPTU R$ 111,-22.9612316,-43.191196399999995,Rua Real Grandeza, Botafogo,2400,557.87
"Rua Aroazes, Jacarepaguá",90 m²,2.0,3.0,1.0,R$ 2.200 /mês,condomínio R$ 698,IPTU R$ 143,-22.9709611,-43.395351399999996,Rua Aroazes, Jacarepaguá,2200,511.38
"Rua Professor Henrique Costa, Pechincha",52 m²,2.0,2.0,1.0,R$ 1.100 /mês,condomínio R$ 470,IPTU R$ 20,-22.9312854,-43.36198529999999,Rua Professor Henrique Costa, Pechincha,1100,255.69
"Rua Adolfo Mota, Tijuca",85 m²,,2.0,1.0,R$ 3.000 /mês,condomínio R$ 650,IPTU R$ 150,-22.919272199999998,-43.2329841,Rua Adolfo Mota, Tijuca,3000,697.34
"Avenida Prefeito Dulcídio Cardoso, Barra da Tijuca",85 m²,3.0,3.0,1.0,R$ 2.440 /mês,condomínio R$ 1.270,IPTU R$ 236,-23.0048388,-43.366279799999994,Avenida Prefeito Dulcídio Cardoso, Barra da Tijuca,2440,567.17
